$GPGSA,A,3,02,05,06,09,12,13,17,19,28,,,,1.9,0.9,1.7,1*25
$GPGSV,3,1,09,02,26,336,41,05,51,268,45,06,28,013,42,09,23,057,41,1*61
$GPGSV,3,2,09,12,19,307,40,13,20,192,40,17,53,094,46,19,60,057,47,1*69
$GPGSV,3,3,09,28,26,168,40,,,,,,,,,,,,,1*58
$GPGSA,A,3,02,05,06,09,12,13,17,19,28,,,,1.9,0.9,1.7,1*25
$GPGSV,3,1,09,02,26,336,41,05,51,268,45,06,28,013,42,09,23,057,41,1*61
$GPGSV,3,2,09,12,19,307,40,13,20,192,40,17,53,094,46,19,60,057,47,1*69
$GPGSV,3,3,09,28,26,168,40,,,,,,,,,,,,,1*58
$GPGSA,A,3,02,05,06,09,12,13,17,19,28,,,,1.9,0.9,1.7,1*25
$GPGSV,3,1,09,02,26,336,41,05,51,268,45,06,28,013,42,09,23,057,41,1*61
$GPGSV,3,2,09,12,19,307,40,13,20,192,40,17,53,094,46,19,60,057,47,1*69
$GPGSV,3,3,09,28,26,168,40,,,,,,,,,,,,,1*58
$GPGSA,A,3,02,05,06,09,12,13,17,19,28,,,,1.9,0.9,1.7,1*25
$GPGSV,3,1,09,02,26,336,41,05,51,268,45,06,28,013,42,09,23,057,41,1*61
$GPGSV,3,2,09,12,19,307,40,13,20,192,40,17,53,094,46,19,60,057,47,1*69
$GPGSV,3,3,09,28,26,168,40,,,,,,,,,,,,,1*58
$GPGSA,A,3,02,05,06,09,12,13,17,19,28,,,,1.9,0.9,1.7,1*25
$GPGSV,3,1,09,02,26,336,41,05,51,268,46,06,28,013,42,09,23,057,40,1*63
$GPGSV,3,2,09,12,19,307,40,13,20,192,40,17,53,094,46,19,60,057,47,1*69
$GPGSV,3,3,09,28,26,168,40,,,,,,,,,,,,,1*58
$GPGSA,A,3,02,05,06,09,12,13,17,19,28,,,,1.9,0.9,1.7,1*25
$GPGSV,3,1,09,02,26,336,41,05,51,268,46,06,28,013,42,09,23,057,40,1*63
$GPGSV,3,2,09,12,19,307,40,13,20,192,40,17,53,094,46,19,60,057,47,1*69
$GPGSV,3,3,09,28,26,168,40,,,,,,,,,,,,,1*58
$GPGSA,A,3,02,05,06,09,12,13,17,19,28,,,,1.9,0.9,1.7,1*25
$GPGSV,3,1,09,02,26,336,42,05,51,268,46,06,28,013,42,09,23,057,41,1*61
$GPGSV,3,2,09,12,19,307,40,13,20,192,40,17,53,094,47,19,60,057,47,1*68
$GPGSV,3,3,09,28,26,168,40,,,,,,,,,,,,,1*58
$GPGSA,A,3,02,05,06,09,12,13,17,19,28,,,,1.9,0.9,1.7,1*25
$GPGSV,3,1,09,02,26,336,42,05,51,268,46,06,28,013,42,09,23,057,41,1*61
$GPGSV,3,2,09,12,19,307,40,13,20,192,40,17,53,094,47,19,60,057,47,1*68
$GPGSV,3,3,09,28,26,168,40,,,,,,,,,,,,,1*58
$GPGSA,A,3,02,05,06,09,12,13,17,19,28,,,,1.9,0.9,1.7,1*25
$GPGSV,3,1,09,02,26,336,41,05,51,268,46,06,28,013,41,09,23,057,41,1*61
$GPGSV,3,2,09,12,19,307,40,13,20,192,40,17,53,094,47,19,60,057,46,1*69
$GPGSV,3,3,09,28,26,168,40,,,,,,,,,,,,,1*58
$GPGSA,A,3,02,05,06,09,12,13,17,19,28,,,,1.9,0.9,1.7,1*25
$GPGSV,3,1,09,02,26,336,41,05,51,268,46,06,28,013,41,09,23,057,41,1*61
$GPGSV,3,2,09,12,19,307,40,13,20,192,40,17,53,094,47,19,60,057,46,1*69
$GPGSV,3,3,09,28,26,168,40,,,,,,,,,,,,,1*58
$GPGSA,A,3,02,05,06,09,12,13,17,19,28,,,,1.9,0.9,1.7,1*25
$GPGSV,3,1,09,02,26,336,41,05,51,268,45,06,28,013,42,09,23,057,41,1*61
$GPGSV,3,2,09,12,19,307,40,13,20,192,40,17,53,094,47,19,60,057,46,1*69
$GPGSV,3,3,09,28,26,168,40,,,,,,,,,,,,,1*58
$GPGSA,A,3,02,05,06,09,12,13,17,19,28,,,,1.9,0.9,1.7,1*25
$GPGSV,3,1,09,02,26,336,41,05,51,268,46,06,28,013,42,09,23,057,41,1*62
$GPGSV,3,2,09,12,19,307,40,13,20,192,40,17,53,094,47,19,60,057,46,1*69
$GPGSV,3,3,09,28,26,168,40,,,,,,,,,,,,,1*58
$GPRMC,095754.00,A,0655.3229002,N,11650.1978694,E,0.00,0.00,250520,0.0,E,D*3B
$GPGGA,095754.00,0655.3229002,N,11650.1978694,E,2,11,1.0,9.201,M,47.862,M,0.0,*4E
$GPGSA,A,3,02,05,06,09,12,13,17,19,28,,,,1.9,0.9,1.7,1*25
$GPGSV,3,1,09,02,26,336,42,05,51,268,46,06,28,013,41,09,23,057,41,1*62
$GPGSV,3,2,09,12,19,307,40,13,20,192,40,17,53,094,46,19,60,057,46,1*68
$GPGSV,3,3,09,28,26,168,39,,,,,,,,,,,,,1*56
$GPRMC,095754.00,A,0655.3229002,N,11650.1978694,E,0.00,0.00,250520,0.0,E,D*3B
$GPGGA,095754.00,0655.3229002,N,11650.1978694,E,2,11,1.0,9.201,M,47.862,M,0.0,*4E
$GPGSA,A,3,02,05,06,09,12,13,17,19,28,,,,1.9,0.9,1.7,1*25
$GPGSV,3,1,09,02,26,336,42,05,51,268,46,06,28,013,41,09,23,057,41,1*62
$GPGSV,3,2,09,12,19,307,40,13,20,192,40,17,53,094,46,19,60,057,46,1*68
$GPGSV,3,3,09,28,26,168,39,,,,,,,,,,,,,1*56
$GPGSA,A,3,02,05,06,09,12,13,17,19,28,,,,1.9,0.9,1.7,1*25
$GPGSV,3,1,09,02,26,336,41,05,51,268,46,06,28,013,42,09,23,057,41,1*62
$GPGSV,3,2,09,12,19,307,40,13,20,192,40,17,53,094,47,19,60,057,46,1*69
$GPGSV,3,3,09,28,26,168,40,,,,,,,,,,,,,1*58
$GPGSA,A,3,02,05,06,09,12,13,17,19,28,,,,1.9,0.9,1.7,1*25
$GPGSV,3,1,09,02,26,336,41,05,51,268,46,06,28,013,42,09,23,057,41,1*62
$GPGSV,3,2,09,12,19,307,40,13,20,192,40,17,53,094,47,19,60,057,46,1*69
$GPGSV,3,3,09,28,26,168,40,,,,,,,,,,,,,1*58
$GPGSA,A,3,02,05,06,09,12,13,17,19,28,,,,1.9,0.9,1.7,1*25
$GPGSV,3,1,09,02,26,336,42,05,51,268,46,06,28,013,41,09,23,057,41,1*62
$GPGSV,3,2,09,12,19,307,40,13,20,192,40,17,53,094,47,19,60,057,46,1*69
$GPGSV,3,3,09,28,26,168,40,,,,,,,,,,,,,1*58
$GPGSA,A,3,02,05,06,09,12,13,17,19,28,,,,1.9,0.9,1.7,1*25
$GPGSV,3,1,09,02,26,336,42,05,51,268,46,06,28,013,41,09,23,057,41,1*62
$GPGSV,3,2,09,12,19,307,40,13,20,192,40,17,53,094,47,19,60,057,46,1*69
$GPGSV,3,3,09,28,26,168,40,,,,,,,,,,,,,1*58
$GPGSA,A,3,02,05,06,09,12,13,17,19,28,,,,1.9,0.9,1.7,1*25
$GPGSV,3,1,09,02,26,336,43,05,51,268,46,06,28,013,42,09,23,057,40,1*61
$GPGSV,3,2,09,12,19,307,40,13,20,192,40,17,53,094,46,19,60,057,47,1*69
$GPGSV,3,3,09,28,26,168,40,,,,,,,,,,,,,1*58
$GPGSA,A,3,02,05,06,09,12,13,17,19,28,,,,1.9,0.9,1.7,1*25
$GPGSV,3,1,09,02,26,336,43,05,51,268,46,06,28,013,42,09,23,057,40,1*61
$GPGSV,3,2,09,12,19,307,40,13,20,192,40,17,53,094,46,19,60,057,47,1*69
$GPGSV,3,3,09,28,26,168,40,,,,,,,,,,,,,1*58
$GPGSA,A,3,02,05,06,09,12,13,17,19,28,,,,1.9,0.9,1.7,1*25
$GPGSV,3,1,09,02,26,336,43,05,51,268,46,06,28,013,42,09,23,057,40,1*61
$GPGSV,3,2,09,12,19,307,40,13,20,192,40,17,53,094,46,19,60,057,47,1*69
$GPGSV,3,3,09,28,26,168,40,,,,,,,,,,,,,1*58
$GPGSA,A,3,02,05,06,09,12,13,17,19,28,,,,1.9,0.9,1.7,1*25
$GPGSV,3,1,09,02,26,336,42,05,51,268,46,06,28,013,42,09,23,057,41,1*61
$GPGSV,3,2,09,12,19,307,40,13,20,192,40,17,53,094,47,19,60,057,47,1*68
$GPGSV,3,3,09,28,26,168,40,,,,,,,,,,,,,1*58
$GPGSA,A,3,02,05,06,09,12,13,17,19,28,,,,1.9,0.9,1.7,1*25
$GPGSV,3,1,09,02,26,336,42,05,51,268,46,06,28,013,42,09,23,057,41,1*61
$GPGSV,3,2,09,12,19,307,40,13,20,192,40,17,53,094,47,19,60,057,47,1*68
$GPGSV,3,3,09,28,26,168,40,,,,,,,,,,,,,1*58
$GPGSA,A,3,02,05,06,09,12,13,17,19,28,,,,1.9,0.9,1.7,1*25
$GPGSV,3,1,09,02,26,336,42,05,51,268,46,06,28,013,42,09,23,057,41,1*61
$GPGSV,3,2,09,12,19,307,40,13,20,192,40,17,53,094,47,19,60,057,46,1*69
$GPGSV,3,3,09,28,26,168,40,,,,,,,,,,,,,1*58
$GPGSA,A,3,02,05,06,09,12,13,17,19,28,,,,1.9,0.9,1.7,1*25
$GPGSV,3,1,09,02,26,336,42,05,51,268,46,06,28,013,42,09,23,057,41,1*61
$GPGSV,3,2,09,12,19,307,40,13,20,192,40,17,53,094,47,19,60,057,46,1*69
$GPGSV,3,3,09,28,26,168,40,,,,,,,,,,,,,1*58
$GPGSA,A,3,02,05,06,09,12,13,17,19,28,,,,1.9,0.9,1.7,1*25
$GPGSV,3,1,09,02,26,336,42,05,51,268,46,06,28,013,42,09,23,057,40,1*60
$GPGSV,3,2,09,12,19,307,40,13,20,192,40,17,53,094,47,19,60,057,46,1*69
$GPGSV,3,3,09,28,26,168,40,,,,,,,,,,,,,1*58
$GPGSA,A,3,02,05,06,09,12,13,17,19,28,,,,1.9,0.9,1.7,1*25
$GPGSV,3,1,09,02,26,336,42,05,51,268,46,06,28,013,42,09,23,057,40,1*60
$GPGSV,3,2,09,12,19,307,40,13,20,192,40,17,53,094,47,19,60,057,46,1*69
$GPGSV,3,3,09,28,26,168,40,,,,,,,,,,,,,1*58
$GPGSA,A,3,02,05,06,09,12,13,17,19,28,,,,1.9,0.9,1.7,1*25
$GPGSV,3,1,09,02,26,336,42,05,51,268,46,06,28,013,41,09,23,057,40,1*63
$GPGSV,3,2,09,12,19,307,40,13,20,192,40,17,53,094,47,19,60,057,46,1*69
$GPGSV,3,3,09,28,26,168,40,,,,,,,,,,,,,1*58
$GPGSA,A,3,02,05,06,09,12,13,17,19,28,,,,1.9,0.9,1.7,1*25
$GPGSV,3,1,09,02,26,336,42,05,51,268,46,06,28,013,41,09,23,057,40,1*63
$GPGSV,3,2,09,12,19,307,40,13,20,192,40,17,53,094,47,19,60,057,46,1*69
$GPGSV,3,3,09,28,26,168,40,,,,,,,,,,,,,1*58
$GPRMC,095810.00,A,0655.3229073,N,11650.1980827,E,0.00,0.00,250520,0.0,E,D*33
$GPGGA,095810.00,0655.3229073,N,11650.1980827,E,2,11,1.0,8.733,M,47.862,M,0.0,*43
$GPGSA,A,3,02,05,06,09,12,13,17,19,28,,,,1.9,0.9,1.7,1*25
$GPGSV,3,1,09,02,26,336,42,05,51,268,46,06,28,013,41,09,23,057,40,1*63
$GPGSV,3,2,09,12,19,307,40,13,21,192,40,17,53,095,47,19,60,057,46,1*69
$GPGSV,3,3,09,28,26,168,40,,,,,,,,,,,,,1*58
$GPRMC,095810.00,A,0655.3229073,N,11650.1980827,E,0.00,0.00,250520,0.0,E,D*33
$GPGGA,095810.00,0655.3229073,N,11650.1980827,E,2,11,1.0,8.733,M,47.862,M,0.0,*43
$GPGSA,A,3,02,05,06,09,12,13,17,19,28,,,,1.9,0.9,1.7,1*25
$GPGSV,3,1,09,02,26,336,42,05,51,268,46,06,28,013,41,09,23,057,40,1*63
$GPGSV,3,2,09,12,19,307,40,13,21,192,40,17,53,095,47,19,60,057,46,1*69
$GPGSV,3,3,09,28,26,168,40,,,,,,,,,,,,,1*58
$GPGSA,A,3,02,05,06,09,12,13,17,19,28,,,,1.9,0.9,1.7,1*25
$GPGSV,3,1,09,02,26,336,42,05,51,268,46,06,28,013,41,09,23,057,41,1*62
$GPGSV,3,2,09,12,19,307,40,13,21,192,40,17,53,095,47,19,60,057,46,1*69
$GPGSV,3,3,09,28,26,168,40,,,,,,,,,,,,,1*58
$GPRMC,095813.00,A,0655.3229442,N,11650.1979922,E,0.00,0.00,250520,0.0,E,D*34
$GPGGA,095813.00,0655.3229442,N,11650.1979922,E,2,11,1.0,8.557,M,47.862,M,1.0,*45
$GPGSA,A,3,02,05,06,09,12,13,17,19,28,,,,1.9,0.9,1.7,1*25
$GPGSV,3,1,09,02,26,336,42,05,51,268,46,06,28,013,41,09,23,057,40,1*63
$GPGSV,3,2,09,12,19,307,40,13,21,192,41,17,53,095,47,19,60,057,46,1*68
$GPGSV,3,3,09,28,26,168,40,,,,,,,,,,,,,1*58
$GPGSA,A,3,02,05,06,09,12,13,17,19,28,,,,1.9,0.9,1.7,1*25
$GPGSV,3,1,09,02,26,336,42,05,51,268,47,06,28,013,41,09,23,057,41,1*63
$GPGSV,3,2,09,12,19,307,40,13,21,192,40,17,53,095,47,19,60,057,46,1*69
$GPGSV,3,3,09,28,26,168,40,,,,,,,,,,,,,1*58
$GPGSA,A,3,02,05,06,09,12,13,17,19,28,,,,1.9,0.9,1.7,1*25
$GPGSV,3,1,09,02,26,336,42,05,51,268,47,06,28,013,41,09,23,057,41,1*63
$GPGSV,3,2,09,12,19,307,40,13,21,192,40,17,53,095,47,19,60,057,46,1*69
$GPGSV,3,3,09,28,26,168,40,,,,,,,,,,,,,1*58
$GPGSA,A,3,02,05,06,09,12,13,17,19,28,,,,1.9,0.9,1.7,1*25
$GPGSV,3,1,09,02,26,336,42,05,51,268,46,06,28,013,42,09,23,057,40,1*60
$GPGSV,3,2,09,12,19,306,39,13,21,192,41,17,53,095,46,19,60,057,46,1*66
$GPGSV,3,3,09,28,26,168,40,,,,,,,,,,,,,1*58
$GPGSA,A,3,02,05,06,09,12,13,17,19,28,,,,1.9,0.9,1.7,1*25
$GPGSV,3,1,09,02,26,336,42,05,51,268,46,06,28,013,42,09,23,057,40,1*60
$GPGSV,3,2,09,12,19,306,39,13,21,192,41,17,53,095,46,19,60,057,46,1*66
$GPGSV,3,3,09,28,26,168,40,,,,,,,,,,,,,1*58
$GPGSA,A,3,02,05,06,09,12,13,17,19,28,,,,1.9,0.9,1.7,1*25
$GPGSV,3,1,09,02,26,336,42,05,51,268,46,06,28,013,42,09,23,057,41,1*61
$GPGSV,3,2,09,12,19,306,40,13,21,192,41,17,53,095,47,19,60,057,46,1*69
$GPGSV,3,3,09,28,26,168,40,,,,,,,,,,,,,1*58
$GPGSA,A,3,02,05,06,09,12,13,17,19,28,,,,1.9,0.9,1.7,1*25
$GPGSV,3,1,09,02,26,336,42,05,51,268,46,06,28,013,42,09,23,057,41,1*61
$GPGSV,3,2,09,12,19,306,40,13,21,192,41,17,53,095,47,19,60,057,46,1*69
$GPGSV,3,3,09,28,26,168,40,,,,,,,,,,,,,1*58
$GPGSA,A,3,02,05,06,09,12,13,17,19,28,,,,1.9,0.9,1.7,1*25
$GPGSV,3,1,09,02,26,336,42,05,51,268,46,06,28,013,40,09,23,057,41,1*63
$GPGSV,3,2,09,12,19,306,39,13,21,192,41,17,53,095,47,19,60,057,46,1*67
$GPGSV,3,3,09,28,26,168,40,,,,,,,,,,,,,1*58
$GPGSA,A,3,02,05,06,09,12,13,17,19,28,,,,1.9,0.9,1.7,1*25
$GPGSV,3,1,09,02,26,336,42,05,51,268,46,06,28,013,40,09,23,057,41,1*63
$GPGSV,3,2,09,12,19,306,39,13,21,192,41,17,53,095,47,19,60,057,46,1*67
$GPGSV,3,3,09,28,26,168,40,,,,,,,,,,,,,1*58
$GPGSA,A,3,02,05,06,09,12,13,17,19,28,,,,1.9,0.9,1.7,1*25
$GPGSV,3,1,09,02,26,336,42,05,51,268,46,06,28,013,40,09,23,057,41,1*63
$GPGSV,3,2,09,12,19,306,39,13,21,192,41,17,53,095,47,19,60,057,46,1*67
$GPGSV,3,3,09,28,26,168,40,,,,,,,,,,,,,1*58
$GPGSA,A,3,02,05,06,09,12,13,17,19,28,,,,1.9,0.9,1.7,1*25
$GPGSV,3,1,09,02,26,336,42,05,51,268,46,06,28,013,42,09,23,057,40,1*60
$GPGSV,3,2,09,12,19,306,39,13,21,192,41,17,53,095,47,19,60,057,46,1*67
$GPGSV,3,3,09,28,26,168,41,,,,,,,,,,,,,1*59
$GPGSA,A,3,02,05,06,09,12,13,17,19,28,,,,1.9,0.9,1.7,1*25
$GPGSV,3,1,09,02,26,336,42,05,51,268,46,06,28,013,42,09,23,057,40,1*60
$GPGSV,3,2,09,12,19,306,39,13,21,192,41,17,53,095,47,19,60,057,46,1*67
$GPGSV,3,3,09,28,26,168,40,,,,,,,,,,,,,1*58
$GPGSA,A,3,02,05,06,09,12,13,17,19,28,,,,1.9,0.9,1.7,1*25
$GPGSV,3,1,09,02,26,336,42,05,51,268,46,06,28,013,42,09,23,057,40,1*60
$GPGSV,3,2,09,12,19,306,39,13,21,192,41,17,53,095,47,19,60,057,46,1*67
$GPGSV,3,3,09,28,26,168,40,,,,,,,,,,,,,1*58
$GPGSA,A,3,02,05,06,09,12,13,17,19,28,,,,1.9,0.9,1.7,1*25
$GPGSV,3,1,09,02,26,336,42,05,51,268,46,06,28,013,42,09,23,057,41,1*61
$GPGSV,3,2,09,12,19,306,39,13,21,192,41,17,53,095,47,19,60,057,46,1*67
$GPGSV,3,3,09,28,26,168,40,,,,,,,,,,,,,1*58
$GPGSA,A,3,02,05,06,09,12,13,17,19,28,,,,1.9,0.9,1.7,1*25
$GPGSV,3,1,09,02,26,336,42,05,51,268,46,06,28,013,42,09,23,057,41,1*61
$GPGSV,3,2,09,12,19,306,39,13,21,192,41,17,53,095,47,19,60,057,46,1*67
$GPGSV,3,3,09,28,26,168,40,,,,,,,,,,,,,1*58
$GPGSA,A,3,02,05,06,09,12,13,17,19,28,,,,1.9,0.9,1.7,1*25
$GPGSV,3,1,09,02,26,336,42,05,51,269,47,06,28,013,41,09,23,057,41,1*62
$GPGSV,3,2,09,12,19,306,39,13,21,192,41,17,53,095,46,19,60,057,46,1*66
$GPGSV,3,3,09,28,26,168,40,,,,,,,,,,,,,1*58
$GPGSA,A,3,02,05,06,09,12,13,17,19,28,,,,1.9,0.9,1.7,1*25
$GPGSV,3,1,09,02,26,336,42,05,51,269,47,06,28,013,41,09,23,057,41,1*62
$GPGSV,3,2,09,12,19,306,39,13,21,192,41,17,53,095,46,19,60,057,46,1*66
$GPGSV,3,3,09,28,26,168,40,,,,,,,,,,,,,1*58
$GPGSA,A,3,02,05,06,09,12,13,17,19,28,,,,1.9,0.9,1.7,1*25
$GPGSV,3,1,09,02,26,336,42,05,51,269,47,06,28,013,41,09,23,057,41,1*62
$GPGSV,3,2,09,12,19,306,39,13,21,192,41,17,53,095,46,19,60,057,46,1*66
$GPGSV,3,3,09,28,26,168,40,,,,,,,,,,,,,1*58
$GPRMC,095830.00,A,0655.3229401,N,11650.1981857,E,0.00,0.00,250520,0.0,E,D*36
$GPGGA,095830.00,0655.3229401,N,11650.1981857,E,2,11,1.0,8.881,M,47.862,M,0.0,*40
$GPGSA,A,3,02,05,06,09,12,13,17,19,28,,,,1.9,0.9,1.7,1*25
$GPGSV,3,1,09,02,26,336,42,05,51,269,46,06,28,013,41,09,23,057,41,1*63
$GPGSV,3,2,09,12,19,306,39,13,21,192,41,17,53,095,46,19,60,057,46,1*66
$GPGSV,3,3,09,28,26,168,40,,,,,,,,,,,,,1*58
$GPRMC,095830.00,A,0655.3229401,N,11650.1981857,E,0.00,0.00,250520,0.0,E,D*36
$GPGGA,095830.00,0655.3229401,N,11650.1981857,E,2,11,1.0,8.881,M,47.862,M,0.0,*40
$GPGSA,A,3,02,05,06,09,12,13,17,19,28,,,,1.9,0.9,1.7,1*25
$GPGSV,3,1,09,02,26,336,42,05,51,269,46,06,28,013,41,09,23,057,41,1*63
$GPGSV,3,2,09,12,19,306,39,13,21,192,41,17,53,095,46,19,60,057,46,1*66
$GPGSV,3,3,09,28,26,168,40,,,,,,,,,,,,,1*58
$GPGSA,A,3,02,05,06,09,12,13,17,19,28,,,,1.9,0.9,1.7,1*25
$GPGSV,3,1,09,02,26,336,42,05,51,269,46,06,28,013,41,09,23,057,41,1*63
$GPGSV,3,2,09,12,19,306,39,13,21,192,41,17,53,095,47,19,60,057,47,1*66
$GPGSV,3,3,09,28,26,168,40,,,,,,,,,,,,,1*58
$GPGSA,A,3,02,05,06,09,12,13,17,19,28,,,,1.9,0.9,1.7,1*25
$GPGSV,3,1,09,02,26,336,42,05,51,269,46,06,28,013,40,09,23,057,40,1*63
$GPGSV,3,2,09,12,19,306,39,13,21,192,41,17,53,095,47,19,60,057,46,1*67
$GPGSV,3,3,09,28,26,168,40,,,,,,,,,,,,,1*58
$GPGSA,A,3,02,05,06,09,12,13,17,19,28,,,,1.9,0.9,1.7,1*25
$GPGSV,3,1,09,02,26,336,42,05,51,269,46,06,28,013,40,09,23,057,40,1*63
$GPGSV,3,2,09,12,19,306,39,13,21,192,41,17,53,095,47,19,60,057,46,1*67
$GPGSV,3,3,09,28,26,168,40,,,,,,,,,,,,,1*58
$GPGSA,A,3,02,05,06,09,12,13,17,19,28,,,,1.9,0.9,1.7,1*25
$GPGSV,3,1,09,02,26,336,42,05,51,269,46,06,28,013,40,09,23,057,40,1*63
$GPGSV,3,2,09,12,19,306,39,13,21,192,41,17,53,095,47,19,60,057,46,1*67
$GPGSV,3,3,09,28,26,168,40,,,,,,,,,,,,,1*58
$GPGSA,A,3,02,05,06,09,12,13,17,19,28,,,,1.9,0.9,1.7,1*25
$GPGSV,3,1,09,02,26,336,41,05,51,269,46,06,28,014,40,09,23,057,40,1*67
$GPGSV,3,2,09,12,19,306,39,13,21,192,41,17,53,095,48,19,60,057,46,1*68
$GPGSV,3,3,09,28,26,168,40,,,,,,,,,,,,,1*58
$GPGSA,A,3,02,05,06,09,12,13,17,19,28,,,,1.9,0.9,1.7,1*25
$GPGSV,3,1,09,02,26,336,41,05,51,269,46,06,28,014,40,09,23,057,40,1*67
$GPGSV,3,2,09,12,19,306,39,13,21,192,41,17,53,095,48,19,60,057,46,1*68
$GPGSV,3,3,09,28,26,168,40,,,,,,,,,,,,,1*58
$GPGSA,A,3,02,05,06,09,12,13,17,19,28,,,,1.9,0.9,1.7,1*25
$GPGSV,3,1,09,02,26,336,42,05,51,269,46,06,28,014,40,09,23,057,40,1*64
$GPGSV,3,2,09,12,19,306,39,13,21,192,41,17,53,095,47,19,60,057,46,1*67
$GPGSV,3,3,09,28,26,168,40,,,,,,,,,,,,,1*58
$GPGSA,A,3,02,05,06,09,12,13,17,19,28,,,,1.9,0.9,1.7,1*25
$GPGSV,3,1,09,02,26,336,42,05,51,269,46,06,28,014,40,09,23,057,40,1*64
$GPGSV,3,2,09,12,19,306,39,13,21,192,41,17,53,095,47,19,60,057,46,1*67
$GPGSV,3,3,09,28,26,168,40,,,,,,,,,,,,,1*58
$GPGSA,A,3,02,05,06,09,12,13,17,19,28,,,,1.9,0.9,1.7,1*25
$GPGSV,3,1,09,02,26,336,42,05,51,269,46,06,28,014,40,09,23,057,40,1*64
$GPGSV,3,2,09,12,19,306,40,13,21,192,41,17,53,095,48,19,60,058,46,1*69
$GPGSV,3,3,09,28,26,168,40,,,,,,,,,,,,,1*58
$GPGSA,A,3,02,05,06,09,12,13,17,19,28,,,,1.9,0.9,1.7,1*25
$GPGSV,3,1,09,02,26,336,42,05,51,269,46,06,28,014,40,09,23,057,40,1*64
$GPGSV,3,2,09,12,19,306,40,13,21,192,41,17,53,095,48,19,60,058,46,1*69
$GPGSV,3,3,09,28,26,168,40,,,,,,,,,,,,,1*58
$GPGSA,A,3,02,05,06,09,12,13,17,19,28,,,,1.9,0.9,1.7,1*25
$GPGSV,3,1,09,02,26,336,41,05,51,269,47,06,28,014,40,09,23,057,40,1*66
$GPGSV,3,2,09,12,19,306,39,13,21,192,41,17,53,095,46,19,60,058,46,1*69
$GPGSV,3,3,09,28,26,168,40,,,,,,,,,,,,,1*58
$GPGSA,A,3,02,05,06,09,12,13,17,19,28,,,,1.9,0.9,1.7,1*25
$GPGSV,3,1,09,02,26,336,42,05,51,269,47,06,28,014,40,09,23,057,40,1*65
$GPGSV,3,2,09,12,19,306,39,13,21,192,41,17,53,095,47,19,60,058,46,1*68
$GPGSV,3,3,09,28,26,168,41,,,,,,,,,,,,,1*59
$GPGSA,A,3,02,05,06,09,12,13,17,19,28,,,,1.9,0.9,1.7,1*25
$GPGSV,3,1,09,02,26,336,42,05,51,269,47,06,28,014,40,09,23,057,40,1*65
$GPGSV,3,2,09,12,19,306,39,13,21,192,41,17,53,095,46,19,60,058,46,1*69
$GPGSV,3,3,09,28,26,168,41,,,,,,,,,,,,,1*59
$GPGSA,A,3,02,05,06,09,12,13,17,19,28,,,,1.9,0.9,1.7,1*25
$GPGSV,3,1,09,02,26,336,42,05,51,269,47,06,28,014,40,09,23,057,40,1*65
$GPGSV,3,2,09,12,19,306,39,13,21,192,41,17,53,095,46,19,60,058,46,1*69
$GPGSV,3,3,09,28,26,168,41,,,,,,,,,,,,,1*59
$GPGSA,A,3,02,05,06,09,12,13,17,19,28,,,,1.9,0.9,1.7,1*25
$GPGSV,3,1,09,02,26,336,42,05,51,269,46,06,28,014,40,09,23,057,40,1*64
$GPGSV,3,2,09,12,19,306,39,13,21,192,41,17,53,095,47,19,60,058,47,1*69
$GPGSV,3,3,09,28,26,168,41,,,,,,,,,,,,,1*59
$GPGSA,A,3,02,05,06,09,12,13,17,19,28,,,,1.9,0.9,1.7,1*25
$GPGSV,3,1,09,02,26,336,42,05,51,269,46,06,28,014,40,09,23,057,40,1*64
$GPGSV,3,2,09,12,19,306,39,13,21,192,41,17,53,095,47,19,60,058,47,1*69
$GPGSV,3,3,09,28,26,168,41,,,,,,,,,,,,,1*59
$GPGSA,A,3,02,05,06,09,12,13,17,19,28,,,,1.9,0.9,1.7,1*25
$GPGSV,3,1,09,02,26,336,42,05,51,269,46,06,28,014,40,09,23,056,40,1*65
$GPGSV,3,2,09,12,19,306,40,13,21,192,40,17,53,095,46,19,60,058,46,1*66
$GPGSV,3,3,09,28,26,168,41,,,,,,,,,,,,,1*59
$GPGSA,A,3,02,05,06,09,12,13,17,19,28,,,,1.9,0.9,1.7,1*25
$GPGSV,3,1,09,02,26,336,42,05,51,269,46,06,28,014,40,09,23,056,40,1*65
$GPGSV,3,2,09,12,19,306,40,13,21,192,40,17,53,095,46,19,60,058,46,1*66
$GPGSV,3,3,09,28,26,168,41,,,,,,,,,,,,,1*59
$GPGSA,A,3,02,05,06,09,12,13,17,19,28,,,,1.9,0.9,1.7,1*25
$GPGSV,3,1,09,02,26,336,42,05,51,269,46,06,28,014,40,09,23,056,40,1*65
$GPGSV,3,2,09,12,19,306,40,13,21,192,40,17,53,095,46,19,60,058,46,1*66
$GPGSV,3,3,09,28,26,168,41,,,,,,,,,,,,,1*59
$GPGSA,A,3,02,05,06,09,12,13,17,19,28,,,,1.9,0.9,1.7,1*25
$GPGSV,3,1,09,02,26,336,42,05,51,269,46,06,28,014,40,09,23,056,40,1*65
$GPGSV,3,2,09,12,19,306,39,13,21,192,40,17,53,095,46,19,60,058,47,1*69
$GPGSV,3,3,09,28,26,168,41,,,,,,,,,,,,,1*59
$GPGSA,A,3,02,05,06,09,12,13,17,19,28,,,,1.9,0.9,1.7,1*25
$GPGSV,3,1,09,02,26,336,42,05,51,269,46,06,28,014,40,09,23,056,40,1*65
$GPGSV,3,2,09,12,19,306,39,13,21,192,40,17,53,095,46,19,60,058,47,1*69
$GPGSV,3,3,09,28,26,168,41,,,,,,,,,,,,,1*59
$GPGSA,A,3,02,05,06,09,12,13,17,19,28,,,,1.9,0.9,1.7,1*25
$GPGSV,3,1,09,02,26,336,42,05,51,269,46,06,28,014,40,09,23,056,40,1*65
$GPGSV,3,2,09,12,19,306,40,13,21,192,40,17,53,095,47,19,60,058,46,1*67
$GPGSV,3,3,09,28,26,168,41,,,,,,,,,,,,,1*59
$GPGSA,A,3,02,05,06,09,12,13,17,19,28,,,,1.9,0.9,1.7,1*25
$GPGSV,3,1,09,02,26,336,42,05,51,269,46,06,28,014,41,09,23,056,40,1*64
$GPGSV,3,2,09,12,19,306,40,13,21,192,40,17,53,095,47,19,60,058,46,1*67
$GPGSV,3,3,09,28,26,168,41,,,,,,,,,,,,,1*59
$GPGSA,A,3,02,05,06,09,12,13,17,19,28,,,,1.9,0.9,1.7,1*25
$GPGSV,3,1,09,02,26,336,42,05,51,269,46,06,28,014,40,09,23,056,40,1*65
$GPGSV,3,2,09,12,19,306,40,13,21,192,40,17,53,095,47,19,60,058,46,1*67
$GPGSV,3,3,09,28,26,168,40,,,,,,,,,,,,,1*58
$GPGSA,A,3,02,05,06,09,12,13,17,19,28,,,,1.9,0.9,1.7,1*25
$GPGSV,3,1,09,02,26,336,42,05,51,269,46,06,28,014,40,09,23,056,40,1*65
$GPGSV,3,2,09,12,19,306,40,13,21,192,40,17,53,095,47,19,60,058,46,1*67
$GPGSV,3,3,09,28,26,168,40,,,,,,,,,,,,,1*58
$GPGSA,A,3,02,05,06,09,12,13,17,19,28,,,,1.9,0.9,1.7,1*25
$GPGSV,3,1,09,02,26,336,42,05,51,269,46,06,28,014,41,09,23,056,40,1*64
$GPGSV,3,2,09,12,19,306,40,13,21,192,40,17,53,095,47,19,60,058,46,1*67
$GPGSV,3,3,09,28,26,168,41,,,,,,,,,,,,,1*59
$GPGSA,A,3,02,05,06,09,12,13,17,19,28,,,,1.9,0.9,1.7,1*25
$GPGSV,3,1,09,02,26,336,42,05,51,269,46,06,28,014,41,09,23,056,40,1*64
$GPGSV,3,2,09,12,19,306,40,13,21,192,40,17,53,095,47,19,60,058,46,1*67
$GPGSV,3,3,09,28,26,168,41,,,,,,,,,,,,,1*59
$GPGSA,A,3,02,05,06,09,12,13,17,19,28,,,,1.9,0.9,1.7,1*25
$GPGSV,3,1,09,02,26,336,42,05,51,269,46,06,28,014,41,09,23,056,40,1*64
$GPGSV,3,2,09,12,19,306,40,13,21,192,40,17,53,095,46,19,60,058,46,1*66
$GPGSV,3,3,09,28,25,168,40,,,,,,,,,,,,,1*5B
$GPGSA,A,3,02,05,06,09,12,13,17,19,28,,,,1.9,0.9,1.7,1*25
$GPGSV,3,1,09,02,26,336,42,05,51,269,46,06,28,014,41,09,23,056,40,1*64
$GPGSV,3,2,09,12,19,306,40,13,21,192,40,17,53,095,46,19,60,058,46,1*66
$GPGSV,3,3,09,28,25,168,40,,,,,,,,,,,,,1*5B
$GPGSA,A,3,02,05,06,09,12,13,17,19,28,,,,1.9,0.9,1.7,1*25
$GPGSV,3,1,09,02,26,336,42,05,51,269,46,06,28,014,40,09,23,056,40,1*65
$GPGSV,3,2,09,12,19,306,40,13,21,192,40,17,53,095,46,19,60,058,46,1*66
$GPGSV,3,3,09,28,25,168,40,,,,,,,,,,,,,1*5B
$GPGSA,A,3,02,05,06,09,12,13,17,19,28,,,,1.9,0.9,1.7,1*25
$GPGSV,3,1,09,02,26,336,42,05,51,269,46,06,28,014,40,09,23,056,40,1*65
$GPGSV,3,2,09,12,19,306,40,13,21,192,40,17,53,095,46,19,60,058,46,1*66
$GPGSV,3,3,09,28,25,168,40,,,,,,,,,,,,,1*5B
$GPGSA,A,3,02,05,06,09,12,13,17,19,28,,,,1.9,0.9,1.7,1*25
$GPGSV,3,1,09,02,26,336,42,05,51,269,46,06,28,014,41,09,23,056,40,1*64
$GPGSV,3,2,09,12,19,306,40,13,21,192,40,17,53,095,47,19,60,058,46,1*67
$GPGSV,3,3,09,28,25,168,40,,,,,,,,,,,,,1*5B
$GPGSA,A,3,02,05,06,09,12,13,17,19,28,,,,1.9,0.9,1.7,1*25
$GPGSV,3,1,09,02,26,336,42,05,51,269,47,06,28,014,41,09,23,056,40,1*65
$GPGSV,3,2,09,12,19,306,40,13,21,192,40,17,53,095,47,19,60,058,46,1*67
$GPGSV,3,3,09,28,25,168,40,,,,,,,,,,,,,1*5B
$GPGSA,A,3,02,05,06,09,12,13,17,19,28,,,,1.9,0.9,1.7,1*25
$GPGSV,3,1,09,02,26,336,42,05,51,269,47,06,28,014,41,09,23,056,40,1*65
$GPGSV,3,2,09,12,19,306,40,13,21,192,40,17,53,095,47,19,60,058,46,1*67
$GPGSV,3,3,09,28,25,168,40,,,,,,,,,,,,,1*5B
$GPGSA,A,3,02,05,06,09,12,13,17,19,28,,,,1.9,0.9,1.7,1*25
$GPGSV,3,1,09,02,26,336,42,05,51,269,47,06,28,014,41,09,23,056,40,1*65
$GPGSV,3,2,09,12,19,306,40,13,21,192,40,17,53,095,47,19,60,058,46,1*67
$GPGSV,3,3,09,28,25,168,40,,,,,,,,,,,,,1*5B
$GPGSA,A,3,02,05,06,09,12,13,17,19,28,,,,1.9,0.9,1.7,1*25
$GPGSV,3,1,09,02,26,336,42,05,51,269,46,06,28,014,41,09,23,056,41,1*65
$GPGSV,3,2,09,12,19,306,40,13,21,192,40,17,53,095,47,19,60,058,46,1*67
$GPGSV,3,3,09,28,25,168,40,,,,,,,,,,,,,1*5B
$GPGSA,A,3,02,05,06,09,12,13,17,19,28,,,,1.9,0.9,1.7,1*25
$GPGSV,3,1,09,02,26,336,42,05,51,269,46,06,28,014,41,09,23,056,41,1*65
$GPGSV,3,2,09,12,19,306,40,13,21,192,40,17,53,095,47,19,60,058,46,1*67
$GPGSV,3,3,09,28,25,168,40,,,,,,,,,,,,,1*5B
$GPGSA,A,3,02,05,06,09,12,13,17,19,28,,,,1.9,0.9,1.7,1*25
$GPGSV,3,1,09,02,26,336,41,05,51,269,46,06,28,014,40,09,23,056,40,1*66
$GPGSV,3,2,09,12,19,306,40,13,21,192,40,17,53,095,46,19,60,058,46,1*66
$GPGSV,3,3,09,28,25,168,40,,,,,,,,,,,,,1*5B
$GPRMC,095908.00,A,0655.3229933,N,11650.1981705,E,0.00,0.00,250520,0.0,E,D*38
$GPGGA,095908.00,0655.3229933,N,11650.1981705,E,2,11,1.0,8.119,M,47.862,M,0.0,*46
$GPGSA,A,3,02,05,06,09,12,13,17,19,28,,,,1.9,0.9,1.7,1*25
$GPGSV,3,1,09,02,26,336,41,05,51,269,46,06,28,014,41,09,23,056,41,1*66
$GPGSV,3,2,09,12,19,306,40,13,21,192,40,17,53,095,46,19,60,058,46,1*66
$GPGSV,3,3,09,28,25,168,40,,,,,,,,,,,,,1*5B
$GPRMC,095908.00,A,0655.3229933,N,11650.1981705,E,0.00,0.00,250520,0.0,E,D*38
$GPGGA,095908.00,0655.3229933,N,11650.1981705,E,2,11,1.0,8.119,M,47.862,M,0.0,*46
$GPGSA,A,3,02,05,06,09,12,13,17,19,28,,,,1.9,0.9,1.7,1*25
$GPGSV,3,1,09,02,26,336,41,05,51,269,46,06,28,014,41,09,23,056,41,1*66
$GPGSV,3,2,09,12,19,306,40,13,21,192,40,17,53,095,46,19,60,058,46,1*66
$GPGSV,3,3,09,28,25,168,40,,,,,,,,,,,,,1*5B
$GPGSA,A,3,02,05,06,09,12,13,17,19,28,,,,1.9,0.9,1.7,1*25
$GPGSV,3,1,09,02,26,336,41,05,51,269,46,06,28,014,40,09,23,056,40,1*66
$GPGSV,3,2,09,12,19,306,40,13,21,192,40,17,53,095,46,19,60,058,46,1*66
$GPGSV,3,3,09,28,25,168,40,,,,,,,,,,,,,1*5B
$GPGSA,A,3,02,05,06,09,12,13,17,19,28,,,,1.9,0.9,1.7,1*25
$GPGSV,3,1,09,02,26,336,41,05,51,269,46,06,28,014,40,09,23,056,40,1*66
$GPGSV,3,2,09,12,19,306,40,13,21,192,40,17,53,095,46,19,60,058,46,1*66
$GPGSV,3,3,09,28,25,168,40,,,,,,,,,,,,,1*5B
$GPGSA,A,3,02,05,06,09,12,13,17,19,28,,,,1.9,0.9,1.7,1*25
$GPGSV,3,1,09,02,26,336,42,05,51,269,46,06,28,014,40,09,23,056,40,1*65
$GPGSV,3,2,09,12,19,306,40,13,21,192,40,17,53,095,46,19,60,058,46,1*66
$GPGSV,3,3,09,28,25,168,40,,,,,,,,,,,,,1*5B
$GPGSA,A,3,02,05,06,09,12,13,17,19,28,,,,1.9,0.9,1.7,1*25
$GPGSV,3,1,09,02,26,336,42,05,51,269,46,06,28,014,41,09,23,056,40,1*64
$GPGSV,3,2,09,12,19,306,40,13,21,192,40,17,53,095,46,19,60,058,46,1*66
$GPGSV,3,3,09,28,25,168,40,,,,,,,,,,,,,1*5B
$GPGSA,A,3,02,05,06,09,12,13,17,19,28,,,,1.9,0.9,1.7,1*25
$GPGSV,3,1,09,02,26,336,42,05,51,269,46,06,28,014,42,09,23,056,41,1*66
$GPGSV,3,2,09,12,19,306,40,13,21,192,40,17,53,095,46,19,60,058,46,1*66
$GPGSV,3,3,09,28,25,168,40,,,,,,,,,,,,,1*5B
$GPGSA,A,3,02,05,06,09,12,13,17,19,28,,,,1.9,0.9,1.7,1*25
$GPGSV,3,1,09,02,26,336,42,05,51,269,46,06,28,014,42,09,23,056,41,1*66
$GPGSV,3,2,09,12,19,306,40,13,21,192,40,17,53,095,46,19,60,058,46,1*66
$GPGSV,3,3,09,28,25,168,40,,,,,,,,,,,,,1*5B
$GPGSA,A,3,02,05,06,09,12,13,17,19,28,,,,1.9,0.9,1.7,1*25
$GPGSV,3,1,09,02,26,336,42,05,51,269,47,06,28,014,41,09,23,056,41,1*64
$GPGSV,3,2,09,12,19,306,40,13,21,192,40,17,53,095,46,19,60,058,46,1*66
$GPGSV,3,3,09,28,25,168,40,,,,,,,,,,,,,1*5B
$GPGSA,A,3,02,05,06,09,12,13,17,19,28,,,,1.9,0.9,1.7,1*25
$GPGSV,3,1,09,02,26,336,42,05,51,269,47,06,28,014,40,09,23,056,41,1*65
$GPGSV,3,2,09,12,19,306,40,13,21,192,40,17,53,095,47,19,60,058,46,1*67
$GPGSV,3,3,09,28,25,168,40,,,,,,,,,,,,,1*5B
$GPGSA,A,3,02,05,06,09,12,13,17,19,28,,,,1.9,0.9,1.7,1*25
$GPGSV,3,1,09,02,26,336,42,05,51,269,46,06,28,014,40,09,23,056,40,1*65
$GPGSV,3,2,09,12,19,306,40,13,21,192,40,17,53,095,47,19,60,058,46,1*67
$GPGSV,3,3,09,28,25,168,40,,,,,,,,,,,,,1*5B
$GPGSA,A,3,02,05,06,09,12,13,17,19,28,,,,1.9,0.9,1.7,1*25
$GPGSV,3,1,09,02,26,336,42,05,51,269,46,06,28,014,40,09,23,056,40,1*65
$GPGSV,3,2,09,12,19,306,40,13,21,192,40,17,53,095,47,19,60,058,46,1*67
$GPGSV,3,3,09,28,25,168,40,,,,,,,,,,,,,1*5B
$GPGSA,A,3,02,05,06,09,12,13,17,19,28,,,,1.9,0.9,1.7,1*25
$GPGSV,3,1,09,02,26,336,42,05,51,269,46,06,28,014,41,09,23,056,40,1*64
$GPGSV,3,2,09,12,19,306,40,13,21,192,40,17,53,096,46,19,60,058,46,1*65
$GPGSV,3,3,09,28,25,168,40,,,,,,,,,,,,,1*5B
$GPGSA,A,3,02,05,06,09,12,13,17,19,28,,,,1.9,0.9,1.7,1*25
$GPGSV,3,1,09,02,26,336,42,05,51,269,46,06,28,014,40,09,23,056,40,1*65
$GPGSV,3,2,09,12,19,306,40,13,21,192,40,17,53,096,47,19,60,058,46,1*64
$GPGSV,3,3,09,28,25,168,40,,,,,,,,,,,,,1*5B
$GPGSA,A,3,02,05,06,09,12,13,17,19,28,,,,1.9,0.9,1.7,1*25
$GPGSV,3,1,09,02,26,336,42,05,51,269,47,06,28,014,40,09,23,056,41,1*65
$GPGSV,3,2,09,12,19,306,40,13,21,192,40,17,53,096,46,19,60,058,46,1*65
$GPGSV,3,3,09,28,25,168,40,,,,,,,,,,,,,1*5B
$GPGSA,A,3,02,05,06,09,12,13,17,19,28,,,,1.9,0.9,1.7,1*25
$GPGSV,3,1,09,02,26,336,42,05,51,269,47,06,28,014,41,09,23,056,41,1*64
$GPGSV,3,2,09,12,19,306,40,13,21,192,40,17,53,096,46,19,60,058,46,1*65
$GPGSV,3,3,09,28,25,168,40,,,,,,,,,,,,,1*5B
$GPGSA,A,3,02,05,06,09,12,13,17,19,28,,,,1.9,0.9,1.7,1*25
$GPGSV,3,1,09,02,26,336,42,05,51,269,47,06,28,014,41,09,23,056,41,1*64
$GPGSV,3,2,09,12,19,306,40,13,21,192,40,17,53,096,46,19,60,058,47,1*64
$GPGSV,3,3,09,28,25,168,40,,,,,,,,,,,,,1*5B
$GPGSA,A,3,02,05,06,09,12,13,17,19,28,,,,1.9,0.9,1.7,1*25
$GPGSV,3,1,09,02,26,336,42,05,51,269,47,06,28,014,41,09,23,056,41,1*64
$GPGSV,3,2,09,12,19,306,40,13,21,192,40,17,53,096,46,19,60,058,47,1*64
$GPGSV,3,3,09,28,25,168,40,,,,,,,,,,,,,1*5B
$GPGSA,A,3,02,05,06,09,12,13,17,19,28,,,,1.9,0.9,1.7,1*25
$GPGSV,3,1,09,02,26,336,42,05,51,269,46,06,28,014,41,09,23,056,41,1*65
$GPGSV,3,2,09,12,19,306,40,13,21,192,40,17,53,096,46,19,60,058,46,1*65
$GPGSV,3,3,09,28,25,168,40,,,,,,,,,,,,,1*5B
$GPGSA,A,3,02,05,06,09,12,13,17,19,28,,,,1.9,0.9,1.7,1*25
$GPGSV,3,1,09,02,26,336,42,05,51,269,46,06,28,014,41,09,23,056,41,1*65
$GPGSV,3,2,09,12,19,306,40,13,21,192,40,17,53,096,46,19,60,058,46,1*65
$GPGSV,3,3,09,28,25,168,40,,,,,,,,,,,,,1*5B
$GPGSA,A,3,02,05,06,09,12,13,17,19,28,,,,1.9,0.9,1.7,1*25
$GPGSV,3,1,09,02,26,336,42,05,51,269,46,06,28,014,41,09,23,056,41,1*65
$GPGSV,3,2,09,12,19,306,40,13,21,192,40,17,53,096,46,19,60,058,46,1*65
$GPGSV,3,3,09,28,25,168,40,,,,,,,,,,,,,1*5B
$GPGSA,A,3,02,05,06,09,12,13,17,19,28,,,,1.9,0.9,1.7,1*25
$GPGSV,3,1,09,02,26,336,42,05,51,269,46,06,28,014,41,09,23,056,40,1*64
$GPGSV,3,2,09,12,19,306,40,13,21,192,40,17,53,096,47,19,60,058,46,1*64
$GPGSV,3,3,09,28,25,168,40,,,,,,,,,,,,,1*5B
$GPGSA,A,3,02,05,06,09,12,13,17,19,28,,,,1.9,0.9,1.7,1*25
$GPGSV,3,1,09,02,26,336,42,05,51,269,46,06,28,014,41,09,23,056,40,1*64
$GPGSV,3,2,09,12,19,306,40,13,21,192,40,17,53,096,47,19,60,058,46,1*64
$GPGSV,3,3,09,28,25,168,40,,,,,,,,,,,,,1*5B
$GPGSA,A,3,02,05,06,09,12,13,17,19,28,,,,1.9,0.9,1.7,1*25
$GPGSV,3,1,09,02,26,336,42,05,51,269,46,06,28,014,40,09,23,056,40,1*65
$GPGSV,3,2,09,12,19,306,40,13,21,192,40,17,53,096,47,19,60,058,46,1*64
$GPGSV,3,3,09,28,25,168,40,,,,,,,,,,,,,1*5B
$GPGSA,A,3,02,05,06,09,12,13,17,19,28,,,,1.9,0.9,1.7,1*25
$GPGSV,3,1,09,02,26,336,42,05,51,269,46,06,28,014,41,09,23,056,40,1*64
$GPGSV,3,2,09,12,19,306,40,13,21,192,40,17,53,096,47,19,60,058,46,1*64
$GPGSV,3,3,09,28,25,168,40,,,,,,,,,,,,,1*5B
$GPGSA,A,3,02,05,06,09,12,13,17,19,28,,,,1.9,0.9,1.7,1*25
$GPGSV,3,1,09,02,26,336,42,05,51,269,47,06,28,014,41,09,23,056,40,1*65
$GPGSV,3,2,09,12,19,306,40,13,21,192,40,17,53,096,47,19,60,058,47,1*65
$GPGSV,3,3,09,28,25,168,40,,,,,,,,,,,,,1*5B
$GPRMC,095933.00,A,0655.3228953,N,11650.1981149,E,0.00,0.00,250520,0.0,E,D*39
$GPGGA,095933.00,0655.3228953,N,11650.1981149,E,2,11,1.0,8.826,M,47.862,M,1.0,*43
$GPGSA,A,3,02,05,06,09,12,13,17,19,28,,,,1.9,0.9,1.7,1*25
$GPGSV,3,1,09,02,26,336,42,05,51,269,47,06,28,014,40,09,23,056,41,1*65
$GPGSV,3,2,09,12,19,306,40,13,21,192,40,17,53,096,47,19,60,058,47,1*65
$GPGSV,3,3,09,28,25,168,40,,,,,,,,,,,,,1*5B
$GPGSA,A,3,02,05,06,09,12,13,17,19,28,,,,1.9,0.9,1.7,1*25
$GPGSV,3,1,09,02,26,336,42,05,51,269,47,06,28,014,41,09,23,056,40,1*65
$GPGSV,3,2,09,12,19,306,40,13,21,192,40,17,53,096,47,19,60,058,46,1*64
$GPGSV,3,3,09,28,25,168,40,,,,,,,,,,,,,1*5B
$GPGSA,A,3,02,05,06,09,12,13,17,19,28,,,,1.9,0.9,1.7,1*25
$GPGSV,3,1,09,02,26,336,42,05,51,269,47,06,28,014,41,09,23,056,40,1*65
$GPGSV,3,2,09,12,19,306,40,13,21,192,40,17,53,096,47,19,60,058,46,1*64
$GPGSV,3,3,09,28,25,168,40,,,,,,,,,,,,,1*5B
$GPGSA,A,3,02,05,06,09,12,13,17,19,28,,,,1.9,0.9,1.7,1*25
$GPGSV,3,1,09,02,26,336,42,05,51,269,46,06,28,014,41,09,23,056,40,1*64
$GPGSV,3,2,09,12,19,306,40,13,21,192,40,17,53,096,46,19,60,058,46,1*65
$GPGSV,3,3,09,28,25,168,40,,,,,,,,,,,,,1*5B
$GPGSA,A,3,02,05,06,09,12,13,17,19,28,,,,1.9,0.9,1.7,1*25
$GPGSV,3,1,09,02,26,336,42,05,51,269,46,06,28,014,41,09,23,056,40,1*64
$GPGSV,3,2,09,12,19,306,40,13,21,192,40,17,53,096,46,19,60,058,46,1*65
$GPGSV,3,3,09,28,25,168,40,,,,,,,,,,,,,1*5B
$GPGSA,A,3,02,05,06,09,12,13,17,19,28,,,,1.9,0.9,1.7,1*25
$GPGSV,3,1,09,02,26,336,42,05,51,269,46,06,28,014,41,09,23,056,40,1*64
$GPGSV,3,2,09,12,19,306,40,13,21,192,40,17,53,096,47,19,60,058,46,1*64
$GPGSV,3,3,09,28,25,168,40,,,,,,,,,,,,,1*5B
$GPGSA,A,3,02,05,06,09,12,13,17,19,28,,,,1.9,0.9,1.7,1*25
$GPGSV,3,1,09,02,26,336,42,05,51,269,46,06,28,014,41,09,23,056,40,1*64
$GPGSV,3,2,09,12,19,306,40,13,21,192,40,17,53,096,47,19,60,058,46,1*64
$GPGSV,3,3,09,28,25,168,40,,,,,,,,,,,,,1*5B
$GPGSA,A,3,02,05,06,09,12,13,17,19,28,,,,1.9,0.9,1.7,1*25
$GPGSV,3,1,09,02,26,336,42,05,51,269,46,06,28,014,40,09,23,056,40,1*65
$GPGSV,3,2,09,12,19,306,40,13,21,192,40,17,53,096,46,19,60,059,46,1*64
$GPGSV,3,3,09,28,25,168,40,,,,,,,,,,,,,1*5B
$GPRMC,095941.00,A,0655.3228610,N,11650.1980615,E,0.00,0.00,250520,0.0,E,D*3B
$GPGGA,095941.00,0655.3228610,N,11650.1980615,E,2,11,1.0,9.006,M,47.862,M,0.0,*4B
$GPGSA,A,3,02,05,06,09,12,13,17,19,28,,,,1.9,0.9,1.7,1*25
$GPGSV,3,1,09,02,26,336,42,05,51,269,46,06,28,014,41,09,23,056,40,1*64
$GPGSV,3,2,09,12,19,306,40,13,21,192,40,17,53,096,47,19,60,059,46,1*65
$GPGSV,3,3,09,28,25,168,40,,,,,,,,,,,,,1*5B
$GPRMC,095942.00,A,0655.3230389,N,11650.1980117,E,0.00,0.00,250520,0.0,E,D*31
$GPGGA,095942.00,0655.3230389,N,11650.1980117,E,2,11,1.0,9.062,M,47.862,M,1.0,*42
$GPGSA,A,3,02,05,06,09,12,13,17,19,28,,,,1.9,0.9,1.7,1*25
$GPGSV,3,1,09,02,26,336,43,05,51,270,47,06,28,014,40,09,23,056,40,1*6D
$GPGSV,3,2,09,12,19,306,40,13,21,192,41,17,53,096,47,19,60,059,46,1*64
$GPGSV,3,3,09,28,25,168,40,,,,,,,,,,,,,1*5B
$GPRMC,095942.00,A,0655.3230389,N,11650.1980117,E,0.00,0.00,250520,0.0,E,D*31
$GPGGA,095942.00,0655.3230389,N,11650.1980117,E,2,11,1.0,9.062,M,47.862,M,1.0,*42
$GPGSA,A,3,02,05,06,09,12,13,17,19,28,,,,1.9,0.9,1.7,1*25
$GPGSV,3,1,09,02,26,336,43,05,51,270,47,06,28,014,40,09,23,056,40,1*6D
$GPGSV,3,2,09,12,19,306,40,13,21,192,41,17,53,096,47,19,60,059,46,1*64
$GPGSV,3,3,09,28,25,168,40,,,,,,,,,,,,,1*5B
$GPGSA,A,3,02,05,06,09,12,13,17,19,28,,,,1.9,0.9,1.7,1*25
$GPGSV,3,1,09,02,26,336,42,05,51,270,47,06,28,014,40,09,23,056,40,1*6C
$GPGSV,3,2,09,12,19,306,39,13,21,192,40,17,53,096,47,19,60,059,46,1*6B
$GPGSV,3,3,09,28,25,168,40,,,,,,,,,,,,,1*5B
$GPGSA,A,3,02,05,06,09,12,13,17,19,28,,,,1.9,0.9,1.7,1*25
$GPGSV,3,1,09,02,26,336,42,05,51,270,47,06,28,014,40,09,23,056,40,1*6C
$GPGSV,3,2,09,12,19,306,39,13,21,192,40,17,53,096,47,19,60,059,46,1*6B
$GPGSV,3,3,09,28,25,168,40,,,,,,,,,,,,,1*5B
$GPGSA,A,3,02,05,06,09,12,13,17,19,28,,,,1.9,0.9,1.7,1*25
$GPGSV,3,1,09,02,26,337,42,05,51,270,47,06,28,014,40,09,23,056,40,1*6D
$GPGSV,3,2,09,12,19,306,39,13,21,192,40,17,53,096,46,19,60,059,45,1*69
$GPGSV,3,3,09,28,25,168,40,,,,,,,,,,,,,1*5B
$GPGSA,A,3,02,05,06,09,12,13,17,19,28,,,,1.9,0.9,1.7,1*25
$GPGSV,3,1,09,02,26,337,42,05,51,270,47,06,28,014,40,09,23,056,40,1*6D
$GPGSV,3,2,09,12,19,306,39,13,21,192,40,17,53,096,46,19,60,059,45,1*69
$GPGSV,3,3,09,28,25,168,40,,,,,,,,,,,,,1*5B
$GPGSA,A,3,02,05,06,09,12,13,17,19,28,,,,1.9,0.9,1.7,1*25
$GPGSV,3,1,09,02,26,337,42,05,51,270,47,06,28,014,40,09,23,056,40,1*6D
$GPGSV,3,2,09,12,19,306,39,13,21,192,40,17,53,096,46,19,60,059,45,1*69
$GPGSV,3,3,09,28,25,168,40,,,,,,,,,,,,,1*5B
$GPGSA,A,3,02,05,06,09,12,13,17,19,28,,,,1.9,0.9,1.7,1*25
$GPGSV,3,1,09,02,26,337,42,05,51,270,46,06,28,014,40,09,23,056,40,1*6C
$GPGSV,3,2,09,12,19,306,40,13,21,192,40,17,53,096,46,19,60,059,46,1*64
$GPGSV,3,3,09,28,25,168,40,,,,,,,,,,,,,1*5B
$GPGSA,A,3,02,05,06,09,12,13,17,19,28,,,,1.9,0.9,1.7,1*25
$GPGSV,3,1,09,02,26,337,42,05,51,270,46,06,28,014,40,09,23,056,40,1*6C
$GPGSV,3,2,09,12,19,306,40,13,21,192,40,17,53,096,46,19,60,059,46,1*64
$GPGSV,3,3,09,28,25,168,40,,,,,,,,,,,,,1*5B
$GPGSA,A,3,02,05,06,09,12,13,17,19,28,,,,1.9,0.9,1.7,1*25
$GPGSV,3,1,09,02,26,337,42,05,51,270,46,06,28,014,40,09,23,056,40,1*6C
$GPGSV,3,2,09,12,19,306,39,13,21,192,40,17,53,096,46,19,60,059,46,1*6A
$GPGSV,3,3,09,28,25,168,40,,,,,,,,,,,,,1*5B
$GPGSA,A,3,02,05,06,09,12,13,17,19,28,,,,1.9,0.9,1.7,1*25
$GPGSV,3,1,09,02,26,337,42,05,51,270,46,06,28,014,41,09,23,056,40,1*6D
$GPGSV,3,2,09,12,19,306,39,13,21,192,40,17,53,096,46,19,60,059,46,1*6A
$GPGSV,3,3,09,28,25,168,40,,,,,,,,,,,,,1*5B
$GPGSA,A,3,02,05,06,09,12,13,17,19,28,,,,1.9,0.9,1.7,1*25
$GPGSV,3,1,09,02,26,337,42,05,51,270,46,06,28,014,40,09,23,056,40,1*6C
$GPGSV,3,2,09,12,19,306,39,13,21,192,40,17,53,096,46,19,60,059,47,1*6B
$GPGSV,3,3,09,28,25,168,40,,,,,,,,,,,,,1*5B
$GPRMC,095953.00,A,0655.3228122,N,11650.1980582,E,0.00,0.00,250520,0.0,E,D*33
$GPGGA,095953.00,0655.3228122,N,11650.1980582,E,2,11,1.0,7.881,M,47.862,M,0.0,*4A
$GPGSA,A,3,02,05,06,09,12,13,17,19,28,,,,1.9,0.9,1.7,1*25
$GPGSV,3,1,09,02,26,337,42,05,51,270,46,06,28,014,40,09,23,056,40,1*6C
$GPGSV,3,2,09,12,19,306,39,13,21,192,40,17,53,096,46,19,60,059,46,1*6A
$GPGSV,3,3,09,28,25,168,40,,,,,,,,,,,,,1*5B
$GPGSA,A,3,02,05,06,09,12,13,17,19,28,,,,1.9,0.9,1.7,1*25
$GPGSV,3,1,09,02,26,337,42,05,51,270,46,06,28,014,40,09,23,056,40,1*6C
$GPGSV,3,2,09,12,19,306,40,13,21,192,40,17,53,096,46,19,60,059,46,1*64
$GPGSV,3,3,09,28,25,168,40,,,,,,,,,,,,,1*5B
$GPGSA,A,3,02,05,06,09,12,13,17,19,28,,,,1.9,0.9,1.7,1*25
$GPGSV,3,1,09,02,26,337,42,05,51,270,46,06,28,014,40,09,23,056,40,1*6C
$GPGSV,3,2,09,12,19,306,40,13,21,192,40,17,53,096,46,19,60,059,46,1*64
$GPGSV,3,3,09,28,25,168,40,,,,,,,,,,,,,1*5B
$GPGSA,A,3,02,05,06,09,12,13,17,19,28,,,,1.9,0.9,1.7,1*25
$GPGSV,3,1,09,02,26,337,42,05,51,270,46,06,28,014,40,09,23,056,40,1*6C
$GPGSV,3,2,09,12,19,306,39,13,21,192,40,17,53,096,47,19,60,059,46,1*6B
$GPGSV,3,3,09,28,25,168,40,,,,,,,,,,,,,1*5B
$GPGSA,A,3,02,05,06,09,12,13,17,19,28,,,,1.9,0.9,1.7,1*25
$GPGSV,3,1,09,02,26,337,42,05,51,270,46,06,28,014,40,09,23,056,40,1*6C
$GPGSV,3,2,09,12,19,306,39,13,21,192,40,17,53,096,47,19,60,059,46,1*6B
$GPGSV,3,3,09,28,25,168,40,,,,,,,,,,,,,1*5B
$GPRMC,095958.00,A,0655.3229517,N,11650.1979350,E,0.00,0.00,250520,0.0,E,D*34
$GPGGA,095958.00,0655.3229517,N,11650.1979350,E,2,11,1.0,7.729,M,47.862,M,2.0,*42
$GPGSA,A,3,02,05,06,09,12,13,17,19,28,,,,1.9,0.9,1.7,1*25
$GPGSV,3,1,09,02,26,337,42,05,51,270,46,06,28,014,40,09,23,056,40,1*6C
$GPGSV,3,2,09,12,19,306,39,13,21,192,40,17,53,096,46,19,60,059,46,1*6A
$GPGSV,3,3,09,28,25,168,40,,,,,,,,,,,,,1*5B
$GPRMC,095958.00,A,0655.3229517,N,11650.1979350,E,0.00,0.00,250520,0.0,E,D*34
$GPGGA,095958.00,0655.3229517,N,11650.1979350,E,2,11,1.0,7.729,M,47.862,M,2.0,*42
$GPGSA,A,3,02,05,06,09,12,13,17,19,28,,,,1.9,0.9,1.7,1*25
$GPGSV,3,1,09,02,26,337,42,05,51,270,46,06,28,014,40,09,23,056,40,1*6C
$GPGSV,3,2,09,12,19,306,39,13,21,192,40,17,53,096,46,19,60,059,46,1*6A
$GPGSV,3,3,09,28,25,168,40,,,,,,,,,,,,,1*5B
$GPGSA,A,3,02,05,06,09,12,13,17,19,28,,,,1.9,0.9,1.7,1*25
$GPGSV,3,1,09,02,26,337,43,05,51,270,46,06,28,014,40,09,23,056,40,1*6D
$GPGSV,3,2,09,12,20,306,40,13,21,192,40,17,53,096,46,19,60,059,46,1*6E
$GPGSV,3,3,09,28,25,168,40,,,,,,,,,,,,,1*5B
$GPGSA,A,3,02,05,06,09,12,13,17,19,28,,,,1.9,0.9,1.7,1*25
$GPGSV,3,1,09,02,26,337,43,05,51,270,46,06,28,014,40,09,23,056,40,1*6D
$GPGSV,3,2,09,12,20,306,40,13,21,192,40,17,53,096,46,19,60,059,46,1*6E
$GPGSV,3,3,09,28,25,168,40,,,,,,,,,,,,,1*5B
$GPRMC,100001.00,A,0655.3228647,N,11650.1979948,E,0.00,0.00,250520,0.0,E,D*38
$GPGGA,100001.00,0655.3228647,N,11650.1979948,E,2,11,1.0,7.771,M,47.862,M,0.0,*41
$GPGSA,A,3,02,05,06,09,12,13,17,19,28,,,,1.9,0.9,1.7,1*25
$GPGSV,3,1,09,02,26,337,42,05,51,270,46,06,28,014,40,09,23,056,40,1*6C
$GPGSV,3,2,09,12,20,306,39,13,21,191,40,17,53,096,46,19,60,059,46,1*63
$GPGSV,3,3,09,28,25,168,40,,,,,,,,,,,,,1*5B
$GPRMC,100001.00,A,0655.3228647,N,11650.1979948,E,0.00,0.00,250520,0.0,E,D*38
$GPGGA,100001.00,0655.3228647,N,11650.1979948,E,2,11,1.0,7.771,M,47.862,M,0.0,*41
$GPGSA,A,3,02,05,06,09,12,13,17,19,28,,,,1.9,0.9,1.7,1*25
$GPGSV,3,1,09,02,26,337,42,05,51,270,46,06,28,014,40,09,23,056,40,1*6C
$GPGSV,3,2,09,12,20,306,39,13,21,191,40,17,53,096,46,19,60,059,46,1*63
$GPGSV,3,3,09,28,25,168,40,,,,,,,,,,,,,1*5B
$GPGSA,A,3,02,05,06,09,12,13,17,19,28,,,,1.9,0.9,1.7,1*25
$GPGSV,3,1,09,02,26,337,43,05,51,270,46,06,28,014,41,09,23,056,40,1*6C
$GPGSV,3,2,09,12,20,306,39,13,21,191,40,17,53,096,46,19,60,059,46,1*63
$GPGSV,3,3,09,28,25,168,40,,,,,,,,,,,,,1*5B
$GPGSA,A,3,02,05,06,09,12,13,17,19,28,,,,1.9,0.9,1.7,1*25
$GPGSV,3,1,09,02,26,337,43,05,51,270,46,06,28,014,41,09,23,056,40,1*6C
$GPGSV,3,2,09,12,20,306,39,13,21,191,40,17,53,096,46,19,60,059,46,1*63
$GPGSV,3,3,09,28,25,168,40,,,,,,,,,,,,,1*5B
$GPGSA,A,3,02,05,06,09,12,13,17,19,28,,,,1.9,0.9,1.7,1*25
$GPGSV,3,1,09,02,26,337,42,05,51,270,46,06,28,014,41,09,23,056,40,1*6D
$GPGSV,3,2,09,12,20,306,39,13,21,191,40,17,53,096,46,19,60,059,46,1*63
$GPGSV,3,3,09,28,25,168,40,,,,,,,,,,,,,1*5B
$GPGSA,A,3,02,05,06,09,12,13,17,19,28,,,,1.9,0.9,1.7,1*25
$GPGSV,3,1,09,02,26,337,42,05,51,270,46,06,28,014,41,09,23,056,40,1*6D
$GPGSV,3,2,09,12,20,306,39,13,21,191,40,17,53,096,46,19,60,059,46,1*63
$GPGSV,3,3,09,28,25,168,40,,,,,,,,,,,,,1*5B
$GPGSA,A,3,02,05,06,09,12,13,17,19,28,,,,1.9,0.9,1.7,1*25
$GPGSV,3,1,09,02,26,337,42,05,51,270,46,06,28,014,41,09,23,056,40,1*6D
$GPGSV,3,2,09,12,20,306,39,13,21,191,40,17,53,096,46,19,60,059,46,1*63
$GPGSV,3,3,09,28,25,168,40,,,,,,,,,,,,,1*5B
$GPGSA,A,3,02,05,06,09,12,13,17,19,28,,,,1.9,0.9,1.7,1*25
$GPGSV,3,1,09,02,26,337,43,05,51,270,46,06,28,014,40,09,23,056,40,1*6D
$GPGSV,3,2,09,12,20,306,39,13,21,191,40,17,53,096,46,19,60,059,46,1*63
$GPGSV,3,3,09,28,25,168,40,,,,,,,,,,,,,1*5B
$GPGSA,A,3,02,05,06,09,12,13,17,19,28,,,,1.9,0.9,1.7,1*25
$GPGSV,3,1,09,02,26,337,43,05,51,270,46,06,28,014,40,09,23,056,40,1*6D
$GPGSV,3,2,09,12,20,306,39,13,21,191,40,17,53,096,46,19,60,059,46,1*63
$GPGSV,3,3,09,28,25,168,40,,,,,,,,,,,,,1*5B
$GPGSA,A,3,02,05,06,09,12,13,17,19,28,,,,1.9,0.9,1.7,1*25
$GPGSV,3,1,09,02,26,337,43,05,51,270,46,06,28,014,40,09,23,056,40,1*6D
$GPGSV,3,2,09,12,20,306,40,13,21,191,40,17,53,096,46,19,60,059,46,1*6D
$GPGSV,3,3,09,28,25,168,40,,,,,,,,,,,,,1*5B
$GPGSA,A,3,02,05,06,09,12,13,17,19,28,,,,1.9,0.9,1.7,1*25
$GPGSV,3,1,09,02,26,337,43,05,51,270,46,06,28,014,40,09,23,056,40,1*6D
$GPGSV,3,2,09,12,20,306,40,13,21,191,40,17,53,096,46,19,60,059,46,1*6D
$GPGSV,3,3,09,28,25,168,40,,,,,,,,,,,,,1*5B
$GPGSA,A,3,02,05,06,09,12,13,17,19,28,,,,1.9,0.9,1.7,1*25
$GPGSV,3,1,09,02,26,337,42,05,51,270,46,06,28,014,40,09,23,056,40,1*6C
$GPGSV,3,2,09,12,20,306,40,13,21,191,40,17,53,096,46,19,60,059,45,1*6E
$GPGSV,3,3,09,28,25,168,40,,,,,,,,,,,,,1*5B
$GPGSA,A,3,02,05,06,09,12,13,17,19,28,,,,1.9,0.9,1.7,1*25
$GPGSV,3,1,09,02,26,337,42,05,51,270,46,06,28,014,41,09,23,056,40,1*6D
$GPGSV,3,2,09,12,20,306,40,13,21,191,40,17,53,096,46,19,60,059,45,1*6E
$GPGSV,3,3,09,28,25,168,40,,,,,,,,,,,,,1*5B
$GPGSA,A,3,02,05,06,09,12,13,17,19,28,,,,1.9,0.9,1.7,1*25
$GPGSV,3,1,09,02,26,337,42,05,51,270,46,06,28,014,40,09,23,056,40,1*6C
$GPGSV,3,2,09,12,20,306,40,13,21,191,40,17,53,096,46,19,60,059,45,1*6E
$GPGSV,3,3,09,28,25,168,40,,,,,,,,,,,,,1*5B
$GPGSA,A,3,02,05,06,09,12,13,17,19,28,,,,1.9,0.9,1.7,1*25
$GPGSV,3,1,09,02,26,337,42,05,51,270,46,06,28,014,40,09,23,056,40,1*6C
$GPGSV,3,2,09,12,20,306,40,13,21,191,40,17,53,096,46,19,60,059,45,1*6E
$GPGSV,3,3,09,28,25,168,40,,,,,,,,,,,,,1*5B
$GPGSA,A,3,02,05,06,09,12,13,17,19,28,,,,1.9,0.9,1.7,1*25
$GPGSV,3,1,09,02,26,337,42,05,51,270,46,06,28,014,40,09,23,056,40,1*6C
$GPGSV,3,2,09,12,20,306,40,13,21,191,40,17,53,096,46,19,60,059,46,1*6D
$GPGSV,3,3,09,28,25,168,40,,,,,,,,,,,,,1*5B
$GPGSA,A,3,02,05,06,09,12,13,17,19,28,,,,1.9,0.9,1.7,1*25
$GPGSV,3,1,09,02,26,337,42,05,51,270,46,06,28,014,40,09,23,056,40,1*6C
$GPGSV,3,2,09,12,20,306,40,13,21,191,40,17,53,096,46,19,60,059,46,1*6D
$GPGSV,3,3,09,28,25,168,40,,,,,,,,,,,,,1*5B
$GPGSA,A,3,02,05,06,09,12,13,17,19,28,,,,1.9,0.9,1.7,1*25
$GPGSV,3,1,09,02,26,337,42,05,51,270,46,06,28,014,41,09,23,056,40,1*6D
$GPGSV,3,2,09,12,20,306,40,13,21,191,40,17,53,096,46,19,60,059,45,1*6E
$GPGSV,3,3,09,28,25,168,40,,,,,,,,,,,,,1*5B
$GPGSA,A,3,02,05,06,09,12,13,17,19,28,,,,1.9,0.9,1.7,1*25
$GPGSV,3,1,09,02,26,337,42,05,51,270,46,06,28,014,41,09,23,056,40,1*6D
$GPGSV,3,2,09,12,20,306,40,13,21,191,40,17,53,096,46,19,60,059,45,1*6E
$GPGSV,3,3,09,28,25,168,40,,,,,,,,,,,,,1*5B
$GPGSA,A,3,02,05,06,09,12,13,17,19,28,,,,1.9,0.9,1.7,1*25
$GPGSV,3,1,09,02,26,337,42,05,51,270,46,06,28,014,40,09,23,056,40,1*6C
$GPGSV,3,2,09,12,20,306,40,13,21,191,40,17,53,096,47,19,60,059,46,1*6C
$GPGSV,3,3,09,28,25,168,40,,,,,,,,,,,,,1*5B
$GPGSA,A,3,02,05,06,09,12,13,17,19,28,,,,1.9,0.9,1.7,1*25
$GPGSV,3,1,09,02,26,337,42,05,51,270,46,06,28,014,40,09,23,056,40,1*6C
$GPGSV,3,2,09,12,20,306,40,13,21,191,40,17,53,096,47,19,60,059,46,1*6C
$GPGSV,3,3,09,28,25,168,40,,,,,,,,,,,,,1*5B
$GPGSA,A,3,02,05,06,09,12,13,17,19,28,,,,1.9,0.9,1.7,1*25
$GPGSV,3,1,09,02,26,337,42,05,51,270,46,06,28,014,40,09,23,056,40,1*6C
$GPGSV,3,2,09,12,20,306,40,13,21,191,40,17,53,096,47,19,60,059,46,1*6C
$GPGSV,3,3,09,28,25,168,40,,,,,,,,,,,,,1*5B
$GPGSA,A,3,02,05,06,09,12,13,17,19,28,,,,1.9,0.9,1.7,1*25
$GPGSV,3,1,09,02,26,337,42,05,51,270,46,06,28,014,41,09,23,056,40,1*6D
$GPGSV,3,2,09,12,20,306,40,13,21,191,40,17,53,096,47,19,60,059,46,1*6C
$GPGSV,3,3,09,28,25,168,40,,,,,,,,,,,,,1*5B
$GPGSA,A,3,02,05,06,09,12,13,17,19,28,,,,1.9,0.9,1.7,1*25
$GPGSV,3,1,09,02,26,337,42,05,51,270,47,06,28,014,41,09,23,056,40,1*6C
$GPGSV,3,2,09,12,20,306,40,13,21,191,40,17,53,096,47,19,60,059,46,1*6C
$GPGSV,3,3,09,28,25,168,40,,,,,,,,,,,,,1*5B
$GPGSA,A,3,02,05,06,09,12,13,17,19,28,,,,1.9,0.9,1.7,1*25
$GPGSV,3,1,09,02,26,337,42,05,51,270,47,06,28,014,41,09,23,056,40,1*6C
$GPGSV,3,2,09,12,20,306,40,13,21,191,40,17,53,096,47,19,60,059,46,1*6C
$GPGSV,3,3,09,28,25,168,40,,,,,,,,,,,,,1*5B
$GPRMC,100025.00,A,0655.3228803,N,11650.1979894,E,0.00,0.00,250520,0.0,E,D*30
$GPGGA,100025.00,0655.3228803,N,11650.1979894,E,2,12,1.0,7.820,M,47.862,M,1.0,*40
$GPGSA,A,3,02,05,06,09,12,13,17,19,28,,,,1.9,0.9,1.7,1*25
$GPGSV,3,1,09,02,26,337,42,05,51,270,47,06,28,014,41,09,23,056,40,1*6C
$GPGSV,3,2,09,12,20,306,40,13,21,191,39,17,53,096,47,19,60,059,46,1*62
$GPGSV,3,3,09,28,25,168,40,,,,,,,,,,,,,1*5B
$GPGSA,A,3,02,05,06,09,12,13,17,19,28,,,,1.9,0.9,1.7,1*25
$GPGSV,3,1,09,02,26,337,42,05,51,270,46,06,28,014,41,09,23,056,40,1*6D
$GPGSV,3,2,09,12,20,306,40,13,21,191,39,17,53,096,47,19,60,059,46,1*62
$GPGSV,3,3,09,28,25,168,40,,,,,,,,,,,,,1*5B
$GPGSA,A,3,02,05,06,09,12,13,17,19,28,,,,1.9,0.9,1.7,1*25
$GPGSV,3,1,09,02,26,337,42,05,51,270,46,06,28,014,41,09,23,056,40,1*6D
$GPGSV,3,2,09,12,20,306,40,13,21,191,39,17,53,096,47,19,60,059,46,1*62
$GPGSV,3,3,09,28,25,168,40,,,,,,,,,,,,,1*5B
$GPGSA,A,3,02,05,06,09,12,13,17,19,28,,,,1.9,0.9,1.7,1*25
$GPGSV,3,1,09,02,26,337,43,05,51,270,46,06,28,014,41,09,22,056,40,1*6D
$GPGSV,3,2,09,12,20,306,40,13,21,191,39,17,53,096,47,19,60,059,46,1*62
$GPGSV,3,3,09,28,25,168,40,,,,,,,,,,,,,1*5B
$GPGSA,A,3,02,05,06,09,12,13,17,19,28,,,,1.9,0.9,1.7,1*25
$GPGSV,3,1,09,02,26,337,43,05,51,270,46,06,28,014,41,09,22,056,40,1*6D
$GPGSV,3,2,09,12,20,306,40,13,21,191,39,17,53,096,47,19,60,059,46,1*62
$GPGSV,3,3,09,28,25,168,40,,,,,,,,,,,,,1*5B
$GPGSA,A,3,02,05,06,09,12,13,17,19,28,,,,1.9,0.9,1.7,1*25
$GPGSV,3,1,09,02,26,337,42,05,51,270,46,06,28,014,41,09,22,056,40,1*6C
$GPGSV,3,2,09,12,20,306,40,13,21,191,40,17,53,096,46,19,60,059,46,1*6D
$GPGSV,3,3,09,28,25,168,40,,,,,,,,,,,,,1*5B
$GPGSA,A,3,02,05,06,09,12,13,17,19,28,,,,1.9,0.9,1.7,1*25
$GPGSV,3,1,09,02,26,337,42,05,51,270,46,06,28,014,41,09,22,056,40,1*6C
$GPGSV,3,2,09,12,20,306,40,13,21,191,40,17,53,096,46,19,60,059,46,1*6D
$GPGSV,3,3,09,28,25,168,40,,,,,,,,,,,,,1*5B
$GPGSA,A,3,02,05,06,09,12,13,17,19,28,,,,1.9,0.9,1.7,1*25
$GPGSV,3,1,09,02,26,337,43,05,51,270,46,06,28,014,40,09,22,056,41,1*6D
$GPGSV,3,2,09,12,20,306,40,13,21,191,40,17,53,097,46,19,60,059,45,1*6F
$GPGSV,3,3,09,28,25,168,40,,,,,,,,,,,,,1*5B
$GPGSA,A,3,02,05,06,09,12,13,17,19,28,,,,1.9,0.9,1.7,1*25
$GPGSV,3,1,09,02,26,337,43,05,51,270,46,06,28,014,40,09,22,056,40,1*6C
$GPGSV,3,2,09,12,20,306,40,13,21,191,39,17,53,097,46,19,60,059,45,1*61
$GPGSV,3,3,09,28,25,168,40,,,,,,,,,,,,,1*5B
$GPGSA,A,3,02,05,06,09,12,13,17,19,28,,,,1.9,0.9,1.7,1*25
$GPGSV,3,1,09,02,26,337,43,05,51,270,47,06,28,014,40,09,22,056,40,1*6D
$GPGSV,3,2,09,12,20,306,40,13,21,191,39,17,53,097,46,19,60,059,46,1*62
$GPGSV,3,3,09,28,25,168,41,,,,,,,,,,,,,1*5A
$GPGSA,A,3,02,05,06,09,12,13,17,19,28,,,,1.9,0.9,1.7,1*25
$GPGSV,3,1,09,02,26,337,43,05,51,270,47,06,28,014,40,09,22,056,40,1*6D
$GPGSV,3,2,09,12,20,306,40,13,21,191,39,17,53,097,46,19,60,059,46,1*62
$GPGSV,3,3,09,28,25,168,41,,,,,,,,,,,,,1*5A
$GPGSA,A,3,02,05,06,09,12,13,17,19,28,,,,1.9,0.9,1.7,1*25
$GPGSV,3,1,09,02,26,337,43,05,51,270,46,06,28,014,40,09,22,056,40,1*6C
$GPGSV,3,2,09,12,20,306,40,13,21,191,39,17,53,097,46,19,60,059,46,1*62
$GPGSV,3,3,09,28,25,168,40,,,,,,,,,,,,,1*5B
$GPGSA,A,3,02,05,06,09,12,13,17,19,28,,,,1.9,0.9,1.7,1*25
$GPGSV,3,1,09,02,26,337,44,05,51,270,47,06,28,014,40,09,22,056,40,1*6A
$GPGSV,3,2,09,12,20,306,39,13,21,191,39,17,53,097,46,19,60,059,46,1*6C
$GPGSV,3,3,09,28,25,168,40,,,,,,,,,,,,,1*5B
$GPRMC,100038.00,A,0655.3229390,N,11650.1982583,E,0.00,0.00,250520,0.0,E,D*33
$GPGGA,100038.00,0655.3229390,N,11650.1982583,E,2,12,1.0,7.973,M,47.862,M,2.0,*47
$GPGSA,A,3,02,05,06,09,12,13,17,19,28,,,,1.9,0.9,1.7,1*25
$GPGSV,3,1,09,02,26,337,43,05,51,270,46,06,28,014,40,09,22,056,40,1*6C
$GPGSV,3,2,09,12,20,306,39,13,21,191,40,17,53,097,46,19,60,059,46,1*62
$GPGSV,3,3,09,28,25,168,40,,,,,,,,,,,,,1*5B
$GPRMC,100038.00,A,0655.3229390,N,11650.1982583,E,0.00,0.00,250520,0.0,E,D*33
$GPGGA,100038.00,0655.3229390,N,11650.1982583,E,2,12,1.0,7.973,M,47.862,M,2.0,*47
$GPGSA,A,3,02,05,06,09,12,13,17,19,28,,,,1.9,0.9,1.7,1*25
$GPGSV,3,1,09,02,26,337,43,05,51,270,46,06,28,014,40,09,22,056,40,1*6C
$GPGSV,3,2,09,12,20,306,39,13,21,191,40,17,53,097,46,19,60,059,46,1*62
$GPGSV,3,3,09,28,25,168,40,,,,,,,,,,,,,1*5B
$GPGSA,A,3,02,05,06,09,12,13,17,19,28,,,,1.9,0.9,1.7,1*25
$GPGSV,3,1,09,02,26,337,43,05,51,270,47,06,28,014,40,09,22,056,40,1*6D
$GPGSV,3,2,09,12,20,306,39,13,21,191,39,17,53,097,46,19,60,060,46,1*66
$GPGSV,3,3,09,28,25,168,40,,,,,,,,,,,,,1*5B
$GPRMC,100041.00,A,0655.3227659,N,11650.1981215,E,0.00,0.00,250520,0.0,E,D*38
$GPGGA,100041.00,0655.3227659,N,11650.1981215,E,2,12,1.0,7.770,M,47.862,M,1.0,*42
$GPGSA,A,3,02,05,06,09,12,13,17,19,28,,,,1.9,0.9,1.7,1*25
$GPGSV,3,1,09,02,26,337,43,05,51,270,48,06,28,014,41,09,22,056,40,1*63
$GPGSV,3,2,09,12,20,306,39,13,21,191,39,17,53,097,46,19,60,060,46,1*66
$GPGSV,3,3,09,28,25,168,40,,,,,,,,,,,,,1*5B
$GPGSA,A,3,02,05,06,09,12,13,17,19,28,,,,1.9,0.9,1.7,1*25
$GPGSV,3,1,09,02,26,337,43,05,51,270,48,06,28,015,40,09,22,056,40,1*63
$GPGSV,3,2,09,12,20,306,39,13,21,191,39,17,53,097,46,19,60,060,46,1*66
$GPGSV,3,3,09,28,25,168,40,,,,,,,,,,,,,1*5B
$GPGSA,A,3,02,05,06,09,12,13,17,19,28,,,,1.9,0.9,1.7,1*25
$GPGSV,3,1,09,02,26,337,43,05,51,270,47,06,28,015,41,09,22,056,40,1*6D
$GPGSV,3,2,09,12,20,306,40,13,21,191,39,17,53,097,46,19,60,060,46,1*68
$GPGSV,3,3,09,28,25,168,40,,,,,,,,,,,,,1*5B
$GPGSA,A,3,02,05,06,09,12,13,17,19,28,,,,1.9,0.9,1.7,1*25
$GPGSV,3,1,09,02,26,337,43,05,51,270,46,06,28,015,41,09,22,056,40,1*6C
$GPGSV,3,2,09,12,20,306,40,13,21,191,39,17,53,097,46,19,60,060,46,1*68
$GPGSV,3,3,09,28,25,168,40,,,,,,,,,,,,,1*5B
$GPGSA,A,3,02,05,06,09,12,13,17,19,28,,,,1.9,0.9,1.7,1*25
$GPGSV,3,1,09,02,26,337,43,05,51,270,46,06,28,015,41,09,22,056,40,1*6C
$GPGSV,3,2,09,12,20,306,40,13,21,191,39,17,53,097,46,19,60,060,46,1*68
$GPGSV,3,3,09,28,25,168,40,,,,,,,,,,,,,1*5B
$GPGSA,A,3,02,05,06,09,12,13,17,19,28,,,,1.9,0.9,1.7,1*25
$GPGSV,3,1,09,02,26,337,43,05,51,270,46,06,28,015,41,09,22,056,40,1*6C
$GPGSV,3,2,09,12,20,306,40,13,21,191,39,17,53,097,46,19,60,060,46,1*68
$GPGSV,3,3,09,28,25,168,40,,,,,,,,,,,,,1*5B
$GPGSA,A,3,02,05,06,09,12,13,17,19,28,,,,1.9,0.9,1.7,1*25
$GPGSV,3,1,09,02,26,337,43,05,51,270,46,06,28,015,40,09,22,056,40,1*6D
$GPGSV,3,2,09,12,20,306,40,13,21,191,40,17,53,097,47,19,60,060,46,1*67
$GPGSV,3,3,09,28,25,168,40,,,,,,,,,,,,,1*5B
$GPGSA,A,3,02,05,06,09,12,13,17,19,28,,,,1.9,0.9,1.7,1*25
$GPGSV,3,1,09,02,26,337,43,05,51,270,46,06,28,015,40,09,22,056,40,1*6D
$GPGSV,3,2,09,12,20,306,40,13,21,191,40,17,53,097,47,19,60,060,46,1*67
$GPGSV,3,3,09,28,25,168,40,,,,,,,,,,,,,1*5B
$GPRMC,100048.00,A,0655.3228919,N,11650.1980270,E,0.00,0.00,250520,0.0,E,D*37
$GPGGA,100048.00,0655.3228919,N,11650.1980270,E,2,12,1.0,7.357,M,47.862,M,2.0,*4F
$GPGSA,A,3,02,05,06,09,12,13,17,19,28,,,,1.9,0.9,1.7,1*25
$GPGSV,3,1,09,02,26,337,42,05,51,270,46,06,28,015,40,09,22,056,40,1*6C
$GPGSV,3,2,09,12,20,306,40,13,21,191,40,17,53,097,47,19,60,060,46,1*67
$GPGSV,3,3,09,28,25,168,40,,,,,,,,,,,,,1*5B
$GPRMC,100048.00,A,0655.3228919,N,11650.1980270,E,0.00,0.00,250520,0.0,E,D*37
$GPGGA,100048.00,0655.3228919,N,11650.1980270,E,2,12,1.0,7.357,M,47.862,M,2.0,*4F
$GPGSA,A,3,02,05,06,09,12,13,17,19,28,,,,1.9,0.9,1.7,1*25
$GPGSV,3,1,09,02,26,337,42,05,51,270,46,06,28,015,40,09,22,056,40,1*6C
$GPGSV,3,2,09,12,20,306,40,13,21,191,40,17,53,097,47,19,60,060,46,1*67
$GPGSV,3,3,09,28,25,168,40,,,,,,,,,,,,,1*5B
$GPGSA,A,3,02,05,06,09,12,13,17,19,28,,,,1.9,0.9,1.7,1*25
$GPGSV,3,1,09,02,26,337,43,05,51,270,46,06,28,015,40,09,22,056,40,1*6D
$GPGSV,3,2,09,12,20,305,39,13,21,191,40,17,53,097,46,19,60,060,46,1*6B
$GPGSV,3,3,09,28,25,168,40,,,,,,,,,,,,,1*5B
$GPGSA,A,3,02,05,06,09,12,13,17,19,28,,,,1.9,0.9,1.7,1*25
$GPGSV,3,1,09,02,26,337,42,05,51,270,46,06,28,015,41,09,22,056,41,1*6C
$GPGSV,3,2,09,12,20,305,40,13,21,191,39,17,53,097,47,19,60,060,46,1*6A
$GPGSV,3,3,09,28,25,168,40,,,,,,,,,,,,,1*5B
$GPGSA,A,3,02,05,06,09,12,13,17,19,28,,,,1.9,0.9,1.7,1*25
$GPGSV,3,1,09,02,26,337,42,05,51,270,46,06,28,015,40,09,22,056,40,1*6C
$GPGSV,3,2,09,12,20,305,40,13,21,191,40,17,53,097,47,19,60,060,46,1*64
$GPGSV,3,3,09,28,25,168,41,,,,,,,,,,,,,1*5A
$GPGSA,A,3,02,05,06,09,12,13,17,19,28,,,,1.9,0.9,1.7,1*25
$GPGSV,3,1,09,02,26,337,42,05,51,270,46,06,28,015,40,09,22,056,40,1*6C
$GPGSV,3,2,09,12,20,305,40,13,21,191,40,17,53,097,47,19,60,060,46,1*64
$GPGSV,3,3,09,28,25,168,41,,,,,,,,,,,,,1*5A
$GPRMC,100054.00,A,0655.3227764,N,11650.1980295,E,0.00,0.00,250520,0.0,E,D*3A
$GPGGA,100054.00,0655.3227764,N,11650.1980295,E,2,12,1.0,7.567,M,47.862,M,0.0,*45
$GPGSA,A,3,02,05,06,09,12,13,17,19,28,,,,1.9,0.9,1.7,1*25
$GPGSV,3,1,09,02,26,337,42,05,51,270,46,06,28,015,40,09,22,056,40,1*6C
$GPGSV,3,2,09,12,20,305,40,13,21,191,40,17,53,097,47,19,60,060,46,1*64
$GPGSV,3,3,09,28,25,168,40,,,,,,,,,,,,,1*5B
$GPRMC,100054.00,A,0655.3227764,N,11650.1980295,E,0.00,0.00,250520,0.0,E,D*3A
$GPGGA,100054.00,0655.3227764,N,11650.1980295,E,2,12,1.0,7.567,M,47.862,M,0.0,*45
$GPGSA,A,3,02,05,06,09,12,13,17,19,28,,,,1.9,0.9,1.7,1*25
$GPGSV,3,1,09,02,26,337,42,05,51,270,46,06,28,015,40,09,22,056,40,1*6C
$GPGSV,3,2,09,12,20,305,40,13,21,191,40,17,53,097,47,19,60,060,46,1*64
$GPGSV,3,3,09,28,25,168,40,,,,,,,,,,,,,1*5B
$GPGSA,A,3,02,05,06,09,12,13,17,19,28,,,,1.9,0.9,1.7,1*25
$GPGSV,3,1,09,02,26,337,42,05,51,271,46,06,28,015,40,09,22,056,40,1*6D
$GPGSV,3,2,09,12,20,305,40,13,22,191,39,17,53,097,46,19,60,060,46,1*68
$GPGSV,3,3,09,28,25,168,40,,,,,,,,,,,,,1*5B
$GPGSA,A,3,02,05,06,09,12,13,17,19,28,,,,1.9,0.9,1.7,1*25
$GPGSV,3,1,09,02,26,337,42,05,51,271,46,06,28,015,40,09,22,056,40,1*6D
$GPGSV,3,2,09,12,20,305,40,13,22,191,39,17,53,097,46,19,60,060,46,1*68
$GPGSV,3,3,09,28,25,168,40,,,,,,,,,,,,,1*5B
$GPGSA,A,3,02,05,06,09,12,13,17,19,28,,,,1.9,0.9,1.7,1*25
$GPGSV,3,1,09,02,26,337,42,05,51,271,45,06,28,015,40,09,22,056,40,1*6E
$GPGSV,3,2,09,12,20,305,39,13,22,191,40,17,53,097,46,19,60,060,45,1*6B
$GPGSV,3,3,09,28,25,168,40,,,,,,,,,,,,,1*5B
$GPGSA,A,3,02,05,06,09,12,13,17,19,28,,,,1.9,0.9,1.7,1*25
$GPGSV,3,1,09,02,26,337,42,05,51,271,45,06,28,015,40,09,22,056,40,1*6E
$GPGSV,3,2,09,12,20,305,39,13,22,191,40,17,53,097,46,19,60,060,45,1*6B
$GPGSV,3,3,09,28,25,168,40,,,,,,,,,,,,,1*5B
$GPGSA,A,3,02,05,06,09,12,13,17,19,28,,,,1.9,0.9,1.7,1*25
$GPGSV,3,1,09,02,26,337,42,05,51,271,46,06,28,015,41,09,22,056,40,1*6C
$GPGSV,3,2,09,12,20,305,40,13,22,191,40,17,53,097,46,19,60,060,45,1*65
$GPGSV,3,3,09,28,25,168,40,,,,,,,,,,,,,1*5B
$GPGSA,A,3,02,05,06,09,12,13,17,19,28,,,,1.9,0.9,1.7,1*25
$GPGSV,3,1,09,02,26,337,42,05,51,271,45,06,28,015,41,09,22,056,40,1*6F
$GPGSV,3,2,09,12,20,305,40,13,22,191,39,17,53,097,46,19,60,060,45,1*6B
$GPGSV,3,3,09,28,25,168,41,,,,,,,,,,,,,1*5A
$GPGSA,A,3,02,05,06,09,12,13,17,19,28,,,,1.9,0.9,1.7,1*25
$GPGSV,3,1,09,02,26,337,42,05,51,271,46,06,28,015,40,09,22,056,40,1*6D
$GPGSV,3,2,09,12,20,305,40,13,22,191,40,17,53,097,47,19,60,060,45,1*64
$GPGSV,3,3,09,28,25,168,41,,,,,,,,,,,,,1*5A
$GPRMC,100103.00,A,0655.3229746,N,11650.1982159,E,0.00,0.00,250520,0.0,E,D*36
$GPGGA,100103.00,0655.3229746,N,11650.1982159,E,2,12,1.0,7.677,M,47.862,M,1.0,*4A
$GPGSA,A,3,02,05,06,09,12,13,17,19,28,,,,1.9,0.9,1.7,1*25
$GPGSV,3,1,09,02,26,337,42,05,51,271,46,06,28,015,40,09,22,056,40,1*6D
$GPGSV,3,2,09,12,20,305,40,13,22,191,40,17,53,097,47,19,60,060,45,1*64
$GPGSV,3,3,09,28,25,168,41,,,,,,,,,,,,,1*5A
$GPGSA,A,3,02,05,06,09,12,13,17,19,28,,,,1.9,0.9,1.7,1*25
$GPGSV,3,1,09,02,26,337,42,05,51,271,46,06,28,015,40,09,22,056,40,1*6D
$GPGSV,3,2,09,12,20,305,40,13,22,191,40,17,53,097,46,19,60,060,45,1*65
$GPGSV,3,3,09,28,25,168,41,,,,,,,,,,,,,1*5A
$GPGSA,A,3,02,05,06,09,12,13,17,19,28,,,,1.9,0.9,1.7,1*25
$GPGSV,3,1,09,02,26,337,42,05,51,271,46,06,28,015,40,09,22,056,40,1*6D
$GPGSV,3,2,09,12,20,305,40,13,22,191,40,17,53,097,46,19,60,060,45,1*65
$GPGSV,3,3,09,28,25,168,41,,,,,,,,,,,,,1*5A
$GPGSA,A,3,02,05,06,09,12,13,17,19,28,,,,1.9,0.9,1.7,1*25
$GPGSV,3,1,09,02,26,337,42,05,51,271,46,06,28,015,40,09,22,056,40,1*6D
$GPGSV,3,2,09,12,20,305,40,13,22,191,40,17,53,097,46,19,60,060,45,1*65
$GPGSV,3,3,09,28,25,168,41,,,,,,,,,,,,,1*5A
$GPGSA,A,3,02,05,06,09,12,13,17,19,28,,,,1.9,0.9,1.7,1*25
$GPGSV,3,1,09,02,26,337,42,05,51,271,46,06,28,015,41,09,22,056,40,1*6C
$GPGSV,3,2,09,12,20,305,40,13,22,191,40,17,53,097,47,19,60,060,45,1*64
$GPGSV,3,3,09,28,25,168,41,,,,,,,,,,,,,1*5A
$GPGSA,A,3,02,05,06,09,12,13,17,19,28,,,,1.9,0.9,1.7,1*25
$GPGSV,3,1,09,02,26,337,42,05,51,271,46,06,28,015,41,09,22,056,40,1*6C
$GPGSV,3,2,09,12,20,305,40,13,22,191,40,17,53,097,47,19,60,060,45,1*64
$GPGSV,3,3,09,28,25,168,41,,,,,,,,,,,,,1*5A
$GPGSA,A,3,02,05,06,09,12,13,17,19,28,,,,1.9,0.9,1.7,1*25
$GPGSV,3,1,09,02,26,337,42,05,51,271,46,06,28,015,40,09,22,056,40,1*6D
$GPGSV,3,2,09,12,20,305,40,13,22,191,40,17,53,097,46,19,60,060,45,1*65
$GPGSV,3,3,09,28,25,168,41,,,,,,,,,,,,,1*5A
$GPGSA,A,3,02,05,06,09,12,13,17,19,28,,,,1.9,0.9,1.7,1*25
$GPGSV,3,1,09,02,26,337,42,05,51,271,46,06,28,015,40,09,22,056,40,1*6D
$GPGSV,3,2,09,12,20,305,40,13,22,191,40,17,53,097,46,19,60,060,45,1*65
$GPGSV,3,3,09,28,25,168,41,,,,,,,,,,,,,1*5A
$GPGSA,A,3,02,05,06,09,12,13,17,19,28,,,,1.9,0.9,1.7,1*25
$GPGSV,3,1,09,02,26,337,42,05,51,271,47,06,28,015,41,09,22,056,40,1*6D
$GPGSV,3,2,09,12,20,305,40,13,22,191,40,17,53,097,45,19,60,060,46,1*65
$GPGSV,3,3,09,28,25,168,41,,,,,,,,,,,,,1*5A
$GPRMC,100111.00,A,0655.3227537,N,11650.1982987,E,0.00,0.00,250520,0.0,E,D*34
$GPGGA,100111.00,0655.3227537,N,11650.1982987,E,2,12,1.0,7.717,M,47.862,M,1.0,*4F
$GPGSA,A,3,02,05,06,09,12,13,17,19,28,,,,1.9,0.9,1.7,1*25
$GPGSV,3,1,09,02,26,337,42,05,51,271,47,06,28,015,40,09,22,056,40,1*6C
$GPGSV,3,2,09,12,20,305,40,13,22,191,40,17,53,097,46,19,60,060,45,1*65
$GPGSV,3,3,09,28,25,168,41,,,,,,,,,,,,,1*5A
$GPGSA,A,3,02,05,06,09,12,13,17,19,28,,,,1.9,0.9,1.7,1*25
$GPGSV,3,1,09,02,26,337,42,05,51,271,46,06,28,015,41,09,22,056,40,1*6C
$GPGSV,3,2,09,12,20,305,40,13,22,191,40,17,53,097,46,19,60,060,45,1*65
$GPGSV,3,3,09,28,25,168,40,,,,,,,,,,,,,1*5B
$GPGSA,A,3,02,05,06,09,12,13,17,19,28,,,,1.9,0.9,1.7,1*25
$GPGSV,3,1,09,02,26,337,42,05,51,271,46,06,28,015,41,09,22,056,40,1*6C
$GPGSV,3,2,09,12,20,305,40,13,22,191,40,17,53,097,46,19,60,060,46,1*66
$GPGSV,3,3,09,28,25,168,41,,,,,,,,,,,,,1*5A
$GPGSA,A,3,02,05,06,09,12,13,17,19,28,,,,1.9,0.9,1.7,1*25
$GPGSV,3,1,09,02,26,337,42,05,51,271,46,06,28,015,40,09,22,056,40,1*6D
$GPGSV,3,2,09,12,20,305,40,13,22,191,40,17,53,097,47,19,60,060,45,1*64
$GPGSV,3,3,09,28,25,168,40,,,,,,,,,,,,,1*5B
$GPGSA,A,3,02,05,06,09,12,13,17,19,28,,,,1.9,0.9,1.7,1*25
$GPGSV,3,1,09,02,26,337,42,05,51,271,46,06,28,015,40,09,22,056,40,1*6D
$GPGSV,3,2,09,12,20,305,40,13,22,191,40,17,53,097,47,19,60,060,45,1*64
$GPGSV,3,3,09,28,25,168,40,,,,,,,,,,,,,1*5B
$GPGSA,A,3,02,05,06,09,12,13,17,19,28,,,,1.9,0.9,1.7,1*25
$GPGSV,3,1,09,02,26,337,42,05,51,271,46,06,28,015,40,09,22,056,40,1*6D
$GPGSV,3,2,09,12,20,305,40,13,22,191,40,17,53,097,47,19,60,060,46,1*67
$GPGSV,3,3,09,28,25,168,40,,,,,,,,,,,,,1*5B
$GPGSA,A,3,02,05,06,09,12,13,17,19,28,,,,1.9,0.9,1.7,1*25
$GPGSV,3,1,09,02,26,337,42,05,51,271,46,06,28,015,40,09,22,056,40,1*6D
$GPGSV,3,2,09,12,20,305,40,13,22,191,40,17,53,097,47,19,60,060,46,1*67
$GPGSV,3,3,09,28,25,168,40,,,,,,,,,,,,,1*5B
$GPGSA,A,3,02,05,06,09,12,13,17,19,28,,,,1.9,0.9,1.7,1*25
$GPGSV,3,1,09,02,26,337,42,05,51,271,45,06,28,015,42,09,22,056,40,1*6C
$GPGSV,3,2,09,12,20,305,41,13,22,191,40,17,53,097,47,19,60,060,45,1*65
$GPGSV,3,3,09,28,25,168,40,,,,,,,,,,,,,1*5B
$GPGSA,A,3,02,05,06,09,12,13,17,19,28,,,,1.9,0.9,1.7,1*25
$GPGSV,3,1,09,02,26,337,42,05,51,271,45,06,28,015,42,09,22,056,40,1*6C
